~Version Information
 VERS.                2.0:  CWLS LOG ASCII STANDARD -VERSION 2.0
 WRAP.                 NO:  ONE LINE PER DEPTH STEP
~WELL INFORMATION BLOCK
#MNEM.UNIT       DATA		            DESCRIPTION OF MNEMONIC
#---------    -------------            ------------------------
 STRT.FT  12.700                         :START DEPTH
 STOP.FT  552.200                        :STOP DEPTH
 STEP.FT  0.100                          :STEP    UP_HOLE  
 NULL.    -999.25                        :NULL VALUE
 COMP.                             usgs  :COMPANY
 WELL.   CL1                                                           :WELL
 FLD .                       Candy Lane  :FIELD
 LOC .  Lat 38.61717 Long 107.90174      :LOCATION
 CNTY.                         Montrose  :COUNTY
 STAT.                     CO            :STATE
 SRVC.           None                    :SERVICE COMPANY
 DATE.   11/10/2005                      :LOG DATE
 API .                                   :API NUMBER
 LIC .                                   :LICENSE NUMBER
~Curve Information Block
#MNEM.UNIT      API CODE     Curve Description
#---------    -------------  ------------------------
 DEPT     .FT        00 001 00 00          :  1  DEPTH   
 GAMMA    .CPS       00 310 00 00          :  2                GAMMA
 CALIPER  .INCH      00 280 00 00          :  3              CALIPER
~Parameter Information Block
#MNEM.UNIT   Information     Description
#---------- ---------------  ------------------------
 FILE.      ORIGINAL           :File Type
 FIID.      9074C              :File Type Identifier
 VERS.      3.58F              :System Version
 SER .      1                  :System Serial Number
 TRUK.      .601567            :Truck Calibration Number
 TOOL.         877             :Tool Serial Number
 TIME.      1245               :Time    HrHrMinMin
 LAT .                         :Latitude
 LON .                         :Longitude
 LMF .          None           :Log Measured From
 DMF .            GL           :Driller Measured From
 PD  .          None           :Permanent Data
 PDEV.          None           :Elevation Permanent Data
 EKB .M         None           :Elevation Kelly Bushing
 ELEV.DF         550           :Elevation DF
 EGL .M         None           :Elevation Ground Level
 DRDP.           550           :Driller's Depth
 CASD.       8.2               :Casing Diameter
 CASB.            20           :Casing Bottom
 CASX.         steel           :Casing Type
 CAST.         0               :Casing Thickness
 TNOC.          None           :Time Circulation Stopped
 LOGU.       None              :Logging Unit
 RECB.         bscorland       :Recorded By
 OSR1.          None           :Other Services
 OSR2.          None           :Other Services
 OSR3.          None           :Other Services
 BS  .MM       5.875           :Bit Size
 MST .                         :Mean Surface Temperature
 TGRD.        0                :Temperature Gradiant
 MAGN.             0           :Magnetic Declination
 MDEN.      2.71               :Density Matrix
 MATR.       Dolomite          :Neutron Matrix
 DTMT.            54           :Delta T Matrix
 DTFL.                         :Delta T Fluid
 MUDS.               0         :Mud Sample Source
 MRS .           0             :Mud Resistivity
 MTP .           0             :Mud Temperature
 MFRS.                         :Resistivity Mud Filtrate
 MFTP.                         :Temperature Mud Filtrate
 MCRS.         0               :Resistivity Mud Cake
 MCTP.                         :Temperature Mud Cake
 FTYP.             0           :Fluid Type
 FD  .K/M3                     :Fluid Density
 DFV .S                        :Fluid Viscosity
 FPH .                         :Fuild PH
 ELCO.        2500             :Electron Cutoff
~Other Information
#MNEM.UNIT  Information      Description
#---------- ---------------  ------------------------
# -------------------------- 
~A DEPTH  GAMMA     CALIPER 
# ...
 399.100   203.333   5.092  
 399.200   240.000   5.094  
 399.300   165.000   5.094  
 399.400   270.000   5.095  
 399.500   255.000   5.094  
 399.600   210.000   5.094  
 399.700   215.000   5.097  
 399.800   253.333   5.101  
 399.900   230.000   5.100  
 400.000   200.000   5.105  
 400.100   170.000   5.111  
 400.200   245.000   5.111  
 400.300   220.000   5.113  
 400.400   215.000   5.129  
 400.500   210.000   5.162  
 400.600   233.333   5.135  
 400.700   185.000   5.109  
 400.800   175.000   5.090  
 400.900   210.000   5.088  
 401.000   215.000   5.088  
 401.100   245.000   5.088  
 401.200   200.000   5.090  
 401.300   205.000   5.090  
 401.400   135.000   5.090  
 401.500   200.000   5.090  
 401.600   176.667   5.090  
 401.700   230.000   5.088  
 401.800   220.000   5.090  
 401.900   170.000   5.090  
 402.000   210.000   5.088  
 402.100   220.000   5.088  
 402.200   175.000   5.080  
 402.300   200.000   5.070  
 402.400   213.333   5.048  
 402.500   185.000   5.044  
 402.600   180.000   5.086  
 402.700   230.000   5.097  
 402.800   235.000   5.097  
 402.900   235.000   5.097  
 403.000   200.000   5.095  
 403.100   210.000   5.094  
 403.200   195.000   5.094  
 403.300   145.000   5.097  
 403.400   190.000   5.095  
 403.500   240.000   5.094  
 403.600   190.000   5.094  
 403.700   220.000   5.095  
 403.800   180.000   5.094  
 403.900   170.000   5.094  
 404.000   205.000   5.099  
 404.100   200.000   5.099  
 404.200   173.333   5.095  
 404.300   255.000   5.095  
 404.400   190.000   5.097  
 404.500   190.000   5.099  
 404.600   225.000   5.101  
 404.700   250.000   5.101  
 404.800   220.000   5.109  
 404.900   135.000   5.137  
 405.000   230.000   5.162  
 405.100   245.000   5.196  
 405.200   190.000   5.174  
 405.300   210.000   5.097  
 405.400   195.000   5.119  
 405.500   225.000   5.137  
 405.600   175.000   5.090  
 405.700   220.000   5.088  
 405.800   140.000   5.090  
 405.900   240.000   5.090  
 406.000   145.000   5.090  
 406.100   190.000   5.090  
 406.200   230.000   5.090  
 406.300   145.000   5.090  
 406.400   130.000   5.090  
 406.500   140.000   5.090  
 406.600   140.000   5.088  
 406.700   166.667   5.088  
 406.800   185.000   5.090  
 406.900   205.000   5.092  
 407.000   110.000   5.090  
 407.100   160.000   5.092  
 407.200   130.000   5.094  
 407.300   140.000   5.090  
 407.400   165.000   5.092  
 407.500   140.000   5.094  
 407.600   160.000   5.094  
 407.700   233.333   5.090  
 407.800   155.000   5.090  
 407.900   185.000   5.086  
 408.000   140.000   5.086  
 408.100   165.000   5.084  
 408.200   155.000   5.080  
 408.300   180.000   5.079  
 408.400   150.000   5.080  
 408.500   155.000   5.080  
 408.600   130.000   5.080  
 408.700   190.000   5.080  
 408.800   190.000   5.078  
 408.900   145.000   5.078  
 409.000    90.000   5.078  
 409.100   163.333   5.078  
 409.200   150.000   5.082  
 409.300   120.000   5.082  
 409.400   140.000   5.082  
 409.500   175.000   5.086  
 409.600   115.000   5.086  
 409.700    95.000   5.092  
 409.800   175.000   5.090  
 409.900   160.000   5.094  
 410.000   150.000   5.094  
 410.100   110.000   5.094  
 410.200   160.000   5.092  
 410.300   180.000   5.086  
 410.400   175.000   5.084  
 410.500   145.000   5.088  
 410.600   120.000   5.088  
 410.700   175.000   5.123  
 410.800   155.000   5.090  
 410.900   150.000   5.091  
 411.000   250.000   5.090  
 411.100   170.000   5.090  
 411.200   220.000   5.092  
 411.300   130.000   5.088  
 411.400   220.000   5.086  
 411.500   220.000   5.082  
 411.600   130.000   5.084  
 411.700   145.000   5.080  
 411.800   133.333   5.082  
 411.900   105.000   5.078  
 412.000   180.000   5.088  
 412.100   140.000   5.088  
 412.200   145.000   5.086  
 412.300   165.000   5.086  
 412.400   170.000   5.082  
 412.500   205.000   5.080  
 412.600   170.000   5.082  
 412.700   145.000   5.084  
 412.800   200.000   5.088  
 412.900   163.333   5.088  
 413.000   165.000   5.090  
 413.100   125.000   5.094  
 413.200   165.000   5.119  
 413.300   150.000   5.094  
 413.400   105.000   5.084  
 413.500   190.000   5.084  
 413.600   170.000   5.086  
 413.700   170.000   5.092  
 413.800   130.000   5.094  
 413.900   130.000   5.123  
 414.000   190.000   5.090  
 414.100   145.000   5.092  
 414.200   175.000   5.094  
 414.300   180.000   5.094  
 414.400   225.000   5.096  
 414.500   203.333   5.097  
 414.600   195.000   5.109  
 414.700   185.000   5.105  
 414.800   175.000   5.088  
 414.900   185.000   5.084  
 415.000   170.000   5.086  
 415.100   150.000   5.084  
 415.200   190.000   5.090  
 415.300   150.000   5.090  
 415.400   115.000   5.092  
 415.500   200.000   5.092  
 415.600   100.000   5.088  
 415.700   145.000   5.090  
 415.800   225.000   5.092  
 415.900   165.000   5.092  
 416.000   150.000   5.094  
 416.100   130.000   5.092  
 416.200   135.000   5.092  
 416.300   170.000   5.094  
 416.400   205.000   5.092  
 416.500   135.000   5.092  
 416.600   165.000   5.094  
 416.700   150.000   5.094  
 416.800   170.000   5.094  
 416.900   230.000   5.094  
 417.000   155.000   5.092  
 417.100   135.000   5.094  
 417.200   166.667   5.095  
 417.300   190.000   5.097  
 417.400   200.000   5.094  
 417.500   130.000   5.094  
 417.600   150.000   5.095  
 417.700   145.000   5.094  
 417.800   180.000   5.092  
 417.900   210.000   5.094  
 418.000   240.000   5.092  
 418.100   155.000   5.092  
 418.200   125.000   5.095  
 418.300   140.000   5.097  
 418.400   160.000   5.095  
 418.500   155.000   5.096  
 418.600   145.000   5.094  
 418.700   143.333   5.086  
 418.800   145.000   5.088  
 418.900   115.000   5.088  
 419.000   125.000   5.088  
 419.100   200.000   5.090  
 419.200   225.000   5.090  
 419.300   135.000   5.088  
 419.400   180.000   5.084  
 419.500   170.000   5.094  
 419.600   195.000   5.092  
 419.700   155.000   5.099  
 419.800   210.000   5.097  
 419.900   195.000   5.097  
 420.000   215.000   5.101  
 420.100   130.000   5.103  
 420.200   135.000   5.105  
 420.300   150.000   5.113  
 420.400   115.000   5.109  
 420.500   173.333   5.096  
 420.600   125.000   5.092  
 420.700   140.000   5.094  
 420.800   160.000   5.094  
 420.900   205.000   5.094  
 421.000   225.000   5.094  
 421.100   195.000   5.094  
 421.200   195.000   5.094  
 421.300   180.000   5.094  
 421.400   195.000   5.094  
 421.500   165.000   5.094  
 421.600   180.000   5.095  
 421.700   165.000   5.095  
 421.800   180.000   5.094  
 421.900   180.000   5.094  
 422.000   155.000   5.090  
 422.100   160.000   5.090  
 422.200   210.000   5.090  
 422.300   183.333   5.092  
 422.400   145.000   5.090  
 422.500   150.000   5.090  
 422.600   145.000   5.086  
 422.700   165.000   5.086  
 422.800   175.000   5.086  
 422.900   220.000   5.088  
 423.000   180.000   5.088  
 423.100   183.333   5.086  
 423.200   165.000   5.088  
 423.300   165.000   5.088  
 423.400   200.000   5.090  
 423.500   215.000   5.092  
 423.600   145.000   5.092  
 423.700   110.000   5.090  
 423.800   173.333   5.090  
 423.900   210.000   5.092  
 424.000   195.000   5.088  
 424.100   190.000   5.088  
 424.200   155.000   5.088  
 424.300   155.000   5.090  
 424.400   180.000   5.088  
 424.500   140.000   5.090  
 424.600   150.000   5.090  
 424.700   203.333   5.090  
 424.800   160.000   5.088  
 424.900   175.000   5.088  
 425.000   175.000   5.090  
 425.100   170.000   5.088  
 425.200   210.000   5.084  
 425.300   175.000   5.090  
 425.400   185.000   5.086  
 425.500   160.000   5.088  
 425.600   155.000   5.092  
 425.700   196.667   5.092  
 425.800   205.000   5.123  
 425.900   170.000   5.095  
 426.000   225.000   5.094  
 426.100   175.000   5.094  
 426.200   115.000   5.095  
 426.300   150.000   5.094  
 426.400   170.000   5.095  
 426.500   110.000   5.097  
 426.600   185.000   5.094  
