~Version Information
 VERS.                2.0:  CWLS LOG ASCII STANDARD -VERSION 2.0
 WRAP.                 NO:  ONE LINE PER DEPTH STEP
~WELL INFORMATION BLOCK
#MNEM.UNIT       DATA		            DESCRIPTION OF MNEMONIC
#---------    -------------            ------------------------
 STRT.FT  12.700                         :START DEPTH
 STOP.FT  552.200                        :STOP DEPTH
 STEP.FT  0.100                          :STEP    UP_HOLE  
 NULL.    -999.25                        :NULL VALUE
 COMP.                             usgs  :COMPANY
 WELL.   CL1                                                           :WELL
 FLD .                       Candy Lane  :FIELD
 LOC .  Lat 38.61717 Long 107.90174      :LOCATION
 CNTY.                         Montrose  :COUNTY
 STAT.                     CO            :STATE
 SRVC.           None                    :SERVICE COMPANY
 DATE.   11/10/2005                      :LOG DATE
 API .                                   :API NUMBER
 LIC .                                   :LICENSE NUMBER
~Curve Information Block
#MNEM.UNIT      API CODE     Curve Description
#---------    -------------  ------------------------
 DEPT     .FT        00 001 00 00          :  1  DEPTH   
 GAMMA    .CPS       00 310 00 00          :  2                GAMMA
 CALIPER  .INCH      00 280 00 00          :  3              CALIPER
~Parameter Information Block
#MNEM.UNIT   Information     Description
#---------- ---------------  ------------------------
 FILE.      ORIGINAL           :File Type
 FIID.      9074C              :File Type Identifier
 VERS.      3.58F              :System Version
 SER .      1                  :System Serial Number
 TRUK.      .601567            :Truck Calibration Number
 TOOL.         877             :Tool Serial Number
 TIME.      1245               :Time    HrHrMinMin
 LAT .                         :Latitude
 LON .                         :Longitude
 LMF .          None           :Log Measured From
 DMF .            GL           :Driller Measured From
 PD  .          None           :Permanent Data
 PDEV.          None           :Elevation Permanent Data
 EKB .M         None           :Elevation Kelly Bushing
 ELEV.DF         550           :Elevation DF
 EGL .M         None           :Elevation Ground Level
 DRDP.           550           :Driller's Depth
 CASD.       8.2               :Casing Diameter
 CASB.            20           :Casing Bottom
 CASX.         steel           :Casing Type
 CAST.         0               :Casing Thickness
 TNOC.          None           :Time Circulation Stopped
 LOGU.       None              :Logging Unit
 RECB.         bscorland       :Recorded By
 OSR1.          None           :Other Services
 OSR2.          None           :Other Services
 OSR3.          None           :Other Services
 BS  .MM       5.875           :Bit Size
 MST .                         :Mean Surface Temperature
 TGRD.        0                :Temperature Gradiant
 MAGN.             0           :Magnetic Declination
 MDEN.      2.71               :Density Matrix
 MATR.       Dolomite          :Neutron Matrix
 DTMT.            54           :Delta T Matrix
 DTFL.                         :Delta T Fluid
 MUDS.               0         :Mud Sample Source
 MRS .           0             :Mud Resistivity
 MTP .           0             :Mud Temperature
 MFRS.                         :Resistivity Mud Filtrate
 MFTP.                         :Temperature Mud Filtrate
 MCRS.         0               :Resistivity Mud Cake
 MCTP.                         :Temperature Mud Cake
 FTYP.             0           :Fluid Type
 FD  .K/M3                     :Fluid Density
 DFV .S                        :Fluid Viscosity
 FPH .                         :Fuild PH
 ELCO.        2500             :Electron Cutoff
~Other Information
#MNEM.UNIT  Information      Description
#---------- ---------------  ------------------------
# -------------------------- 
~A DEPTH  GAMMA     CALIPER 
# ...
  95.500   160.000   5.151  
  95.600    95.000   5.145  
  95.700   150.000   5.145  
  95.800   135.000   5.143  
  95.900   110.000   5.141  
  96.000   135.000   5.141  
  96.100   145.000   5.139  
  96.200   130.000   5.137  
  96.300    95.000   5.133  
  96.400   150.000   5.137  
  96.500    96.667   5.137  
  96.600   105.000   5.137  
  96.700   105.000   5.137  
  96.800   120.000   5.135  
  96.900   135.000   5.137  
  97.000   150.000   5.137  
  97.100   105.000   5.135  
  97.200   135.000   5.137  
  97.300   155.000   5.135  
  97.400   145.000   5.135  
  97.500   150.000   5.137  
  97.600   135.000   5.137  
  97.700   100.000   5.137  
  97.800   120.000   5.137  
  97.900   136.667   5.141  
  98.000   105.000   5.141  
  98.100   120.000   5.137  
  98.200   165.000   5.137  
  98.300   160.000   5.135  
  98.400   100.000   5.137  
  98.500   145.000   5.135  
  98.600   130.000   5.137  
  98.700   133.333   5.137  
  98.800   160.000   5.137  
  98.900   185.000   5.135  
  99.000   145.000   5.135  
  99.100   140.000   5.137  
  99.200   155.000   5.135  
  99.300   150.000   5.135  
  99.400   155.000   5.137  
  99.500    90.000   5.139  
  99.600   190.000   5.145  
  99.700   175.000   5.154  
  99.800   165.000   5.156  
  99.900   136.667   5.156  
 100.000   100.000   5.158  
 100.100   120.000   5.156  
 100.200   135.000   5.156  
 100.300   135.000   5.156  
 100.400   160.000   5.153  
 100.500   150.000   5.153  
 100.600    70.000   5.154  
 100.700   130.000   5.156  
 100.800   175.000   5.158  
 100.900    90.000   5.160  
 101.000   120.000   5.162  
 101.100   170.000   5.168  
 101.200   110.000   5.168  
 101.300   140.000   5.168  
 101.400   160.000   5.180  
 101.500   160.000   5.188  
 101.600   165.000   5.145  
 101.700   180.000   5.143  
 101.800   135.000   5.141  
 101.900   180.000   5.143  
 102.000   180.000   5.141  
 102.100   200.000   5.143  
 102.200   130.000   5.141  
 102.300   173.333   5.135  
 102.400   155.000   5.133  
 102.500   125.000   5.133  
 102.600   150.000   5.131  
 102.700   135.000   5.131  
 102.800   195.000   5.133  
 102.900   100.000   5.131  
 103.000   190.000   5.133  
 103.100   145.000   5.131  
 103.200   140.000   5.132  
 103.300   170.000   5.133  
 103.400   125.000   5.133  
 103.500   120.000   5.131  
 103.600   135.000   5.133  
 103.700   110.000   5.131  
 103.800   150.000   5.133  
 103.900   120.000   5.131  
 104.000   140.000   5.133  
 104.100   120.000   5.133  
 104.200   150.000   5.137  
 104.300   155.000   5.135  
 104.400   105.000   5.135  
 104.500   155.000   5.137  
 104.600   100.000   5.135  
 104.700   166.667   5.137  
 104.800   120.000   5.137  
 104.900    95.000   5.141  
 105.000   150.000   5.139  
 105.100    95.000   5.143  
 105.200   110.000   5.145  
 105.300   105.000   5.145  
 105.400   155.000   5.146  
 105.500   170.000   5.149  
 105.600   125.000   5.151  
 105.700   120.000   5.156  
 105.800   153.333   5.158  
 105.900   145.000   5.160  
 106.000   145.000   5.160  
 106.100   115.000   5.160  
 106.200   140.000   5.153  
 106.300   115.000   5.143  
 106.400   165.000   5.141  
 106.500    90.000   5.137  
 106.600   185.000   5.139  
 106.700   145.000   5.139  
 106.800    95.000   5.139  
 106.900   150.000   5.141  
 107.000   140.000   5.139  
 107.100   130.000   5.139  
 107.200   123.333   5.141  
 107.300   140.000   5.139  
 107.400   175.000   5.139  
 107.500    95.000   5.141  
 107.600   195.000   5.137  
 107.700    95.000   5.141  
 107.800   190.000   5.139  
 107.900   126.667   5.139  
 108.000   125.000   5.139  
 108.100   165.000   5.139  
 108.200   125.000   5.139  
 108.300   140.000   5.141  
 108.400   165.000   5.137  
 108.500   130.000   5.139  
 108.600   145.000   5.141  
 108.700   125.000   5.137  
 108.800   185.000   5.139  
 108.900   130.000   5.139  
 109.000   100.000   5.138  
 109.100   120.000   5.139  
 109.200   120.000   5.141  
 109.300   100.000   5.141  
 109.400   175.000   5.145  
 109.500   140.000   5.145  
 109.600   100.000   5.147  
 109.700   115.000   5.149  
 109.800   160.000   5.149  
 109.900   150.000   5.151  
 110.000   205.000   5.151  
 110.100   190.000   5.153  
 110.200   155.000   5.151  
 110.300   155.000   5.151  
 110.400   186.667   5.149  
 110.500   150.000   5.149  
 110.600   135.000   5.149  
 110.700   120.000   5.153  
 110.800   155.000   5.151  
 110.900   130.000   5.153  
 111.000   200.000   5.153  
 111.100   160.000   5.153  
 111.200   165.000   5.151  
 111.300   155.000   5.149  
 111.400   160.000   5.150  
 111.500   125.000   5.153  
 111.600   145.000   5.149  
 111.700   150.000   5.139  
 111.800   110.000   5.135  
 111.900   190.000   5.133  
 112.000   130.000   5.133  
 112.100   160.000   5.125  
 112.200   130.000   5.125  
 112.300   150.000   5.125  
 112.400   125.000   5.125  
 112.500   130.000   5.125  
 112.600   155.000   5.123  
 112.700   133.333   5.121  
 112.800   140.000   5.121  
 112.900    85.000   5.121  
 113.000   110.000   5.121  
 113.100   145.000   5.127  
 113.200   155.000   5.131  
 113.300    95.000   5.135  
 113.400   145.000   5.137  
 113.500   120.000   5.145  
 113.600   116.667   5.147  
 113.700   130.000   5.147  
 113.800   130.000   5.147  
 113.900    55.000   5.149  
 114.000    95.000   5.147  
 114.100   145.000   5.149  
 114.200   135.000   5.149  
 114.300   130.000   5.147  
 114.400   115.000   5.147  
 114.500   135.000   5.149  
 114.600   135.000   5.149  
 114.700   125.000   5.149  
 114.800   115.000   5.149  
 114.900   126.667   5.149  
 115.000   120.000   5.149  
 115.100   165.000   5.145  
 115.200   160.000   5.145  
 115.300   100.000   5.139  
 115.400   145.000   5.139  
 115.500   100.000   5.139  
 115.600   145.000   5.137  
 115.700    95.000   5.137  
 115.800   100.000   5.135  
 115.900   120.000   5.138  
 116.000   165.000   5.141  
 116.100    95.000   5.141  
 116.200   156.667   5.141  
 116.300   150.000   5.141  
 116.400   105.000   5.141  
 116.500   150.000   5.141  
 116.600   135.000   5.141  
 116.700   160.000   5.141  
 116.800   135.000   5.145  
 116.900   165.000   5.145  
 117.000   145.000   5.149  
 117.100   106.667   5.149  
 117.200    85.000   5.147  
 117.300   160.000   5.149  
 117.400   100.000   5.153  
 117.500   110.000   5.153  
 117.600   105.000   5.153  
 117.700   105.000   5.153  
 117.800   160.000   5.154  
 117.900   150.000   5.151  
 118.000   150.000   5.149  
 118.100   140.000   5.147  
 118.200   130.000   5.143  
 118.300   130.000   5.139  
 118.400   105.000   5.141  
 118.500   140.000   5.139  
 118.600   136.667   5.141  
 118.700   105.000   5.137  
 118.800   110.000   5.137  
 118.900   105.000   5.135  
 119.000    90.000   5.139  
 119.100   130.000   5.137  
 119.200   165.000   5.139  
 119.300   170.000   5.141  
 119.400   170.000   5.141  
 119.500   135.000   5.147  
 119.600   156.667   5.162  
 119.700   175.000   5.168  
 119.800   110.000   5.180  
 119.900   155.000   5.186  
 120.000   140.000   5.188  
 120.100   180.000   5.194  
 120.200   205.000   5.188  
 120.300   230.000   5.181  
 120.400   150.000   5.180  
 120.500   235.000   5.178  
 120.600   150.000   5.180  
 120.700   175.000   5.180  
 120.800   203.333   5.188  
 120.900   200.000   5.194  
 121.000   190.000   5.194  
 121.100   210.000   5.196  
 121.200   165.000   5.196  
 121.300   220.000   5.198  
 121.400   160.000   5.200  
 121.500   175.000   5.200  
 121.600   175.000   5.200  
 121.700   215.000   5.200  
 121.800   205.000   5.204  
 121.900   195.000   5.202  
 122.000   193.333   5.200  
 122.100   185.000   5.192  
 122.200   150.000   5.188  
 122.300   195.000   5.188  
 122.400   155.000   5.186  
 122.500   150.000   5.186  
 122.600   175.000   5.188  
 122.700   140.000   5.186  
 122.800   160.000   5.186  
 122.900   130.000   5.187  
 123.000   143.333   5.186  
