~Version Information
 VERS.                2.0:  CWLS LOG ASCII STANDARD -VERSION 2.0
 WRAP.                 NO:  ONE LINE PER DEPTH STEP
~WELL INFORMATION BLOCK
#MNEM.UNIT       DATA		            DESCRIPTION OF MNEMONIC
#---------    -------------            ------------------------
 STRT.FT  6.300                          :START DEPTH
 STOP.FT  557.000                        :STOP DEPTH
 STEP.FT  0.100                          :STEP    UP_HOLE  
 NULL.    -999.25                        :NULL VALUE
 COMP.                             usgs  :COMPANY
 WELL.   CL1                                                           :WELL
 FLD .                       Candy Lane  :FIELD
 LOC . Lat 38.61717 Long 107.90174       :LOCATION
 CNTY.                         Montrose  :COUNTY
 STAT.                     CO            :STATE
 SRVC.           None                    :SERVICE COMPANY
 DATE.   11/10/2005                      :LOG DATE
 API .                                   :API NUMBER
 LIC .                                   :LICENSE NUMBER
~Curve Information Block
#MNEM.UNIT      API CODE     Curve Description
#---------    -------------  ------------------------
 DEPT     .FT        00 001 00 00          :  1  DEPTH   
 GAMMA    .API-GR    00 310 00 00          :  2                GAMMA
 CALIPER  .INCH      00 280 00 00          :  3              CALIPER
 RES(SG)  .OHM-M     00 220 00 00          :  4              RES(SG)
 POR(DEN) .PERCENT   00 890 00 00          :  5             POR(DEN)
 DEN(CDL) .G/CC      00 350 00 00          :  6             DEN(CDL)
 TEMP     .DEG F     00 660 00 00          :  7                 TEMP
 DEL TEMP .DEG F     00 000 00 00          :  8             DEL TEMP
~Parameter Information Block
#MNEM.UNIT   Information     Description
#---------- ---------------  ------------------------
 FILE.      ORIGINAL           :File Type
 FIID.      9139A              :File Type Identifier
 VERS.      3.58F              :System Version
 SER .      1                  :System Serial Number
 TRUK.      .601567            :Truck Calibration Number
 TOOL.        1239             :Tool Serial Number
 TIME.      1635               :Time    HrHrMinMin
 LAT .                         :Latitude
 LON .                         :Longitude
 LMF .          None           :Log Measured From
 DMF .            GL           :Driller Measured From
 PD  .          None           :Permanent Data
 PDEV.          None           :Elevation Permanent Data
 EKB .M         None           :Elevation Kelly Bushing
 ELEV.DF         550           :Elevation DF
 EGL .M         None           :Elevation Ground Level
 DRDP.           550           :Driller's Depth
 CASD.       8.2               :Casing Diameter
 CASB.            20           :Casing Bottom
 CASX.         steel           :Casing Type
 CAST.         0               :Casing Thickness
 TNOC.          None           :Time Circulation Stopped
 LOGU.       None              :Logging Unit
 RECB.         bscorland       :Recorded By
 OSR1.          None           :Other Services
 OSR2.          None           :Other Services
 OSR3.          None           :Other Services
 BS  .MM       5.875           :Bit Size
 MST .                         :Mean Surface Temperature
 TGRD.        0                :Temperature Gradiant
 MAGN.             0           :Magnetic Declination
 MDEN.      2.71               :Density Matrix
 MATR.       Dolomite          :Neutron Matrix
 DTMT.            54           :Delta T Matrix
 DTFL.                         :Delta T Fluid
 MUDS.               0         :Mud Sample Source
 MRS .           0             :Mud Resistivity
 MTP .           0             :Mud Temperature
 MFRS.                         :Resistivity Mud Filtrate
 MFTP.                         :Temperature Mud Filtrate
 MCRS.         0               :Resistivity Mud Cake
 MCTP.                         :Temperature Mud Cake
 FTYP.             0           :Fluid Type
 FD  .K/M3                     :Fluid Density
 DFV .S                        :Fluid Viscosity
 FPH .                         :Fuild PH
 ELCO.        2500             :Electron Cutoff
~Other Information
#MNEM.UNIT  Information      Description
#---------- ---------------  ------------------------
# -------------------------- 
~A DEPTH  GAMMA     CALIPER RES(SG)   POR(DEN) DEN(CDL) TEMP    DEL TEMP 
# ...
 366.000   134.003   3.336    10.750  13.609   2.477    66.539  -0.037   
 366.100   162.116   3.334    12.261  10.000   2.539    66.527  -0.025   
 366.200   176.172   3.337    12.374   5.173   2.622    66.537  -0.030   
 366.300   166.801   3.339     9.899   6.799   2.594    66.535  -0.021   
 366.400   138.689   3.332    11.087   9.544   2.547    66.547  -0.034   
 366.500    87.149   3.328    10.347  10.484   2.531    66.547  -0.032   
 366.600   180.858   3.332     9.746   8.988   2.556    66.547  -0.042   
 366.700   157.430   3.330     9.676   9.840   2.542    66.551  -0.036   
 366.800   180.858   3.335     9.099   5.477   2.616    66.562  -0.029   
 366.900   185.543   3.346     9.070   4.908   2.626    66.570  -0.040   
 367.000   119.947   3.364     9.461   7.790   2.577    66.564  -0.030   
 367.100   124.632   3.372    10.813  15.724   2.441    66.562  -0.046   
 367.200   218.341   3.383     9.741  13.040   2.487    66.566  -0.045   
 367.300   251.139   3.384    10.205  13.821   2.474    66.568  -0.038   
 367.400   176.172   3.384    11.273  13.517   2.479    66.582  -0.037   
 367.500   143.374   3.382     9.914  11.579   2.512    66.579  -0.029   
 367.600   138.689   3.391    14.137   9.351   2.550    66.593  -0.026   
 367.700   138.689   3.390    11.705   3.789   2.645    66.597  -0.029   
 367.800   119.947   3.391     9.582   5.174   2.622    66.599  -0.024   
 367.900   124.632   3.396     8.977   7.063   2.589    66.604  -0.034   
 368.000   148.060   3.393     9.265   3.630   2.648    66.592  -0.020   
 368.100   143.374   3.393     9.591  11.627   2.511    66.612  -0.013   
 368.200   119.947   3.396    10.069  10.960   2.523    66.613  -0.017   
 368.300   176.172   3.408    11.342   8.193   2.570    66.620  -0.028   
 368.400   148.060   3.410    10.492   9.426   2.549    66.616  -0.025   
 368.500    91.834   3.411     9.430   3.877   2.644    66.622  -0.037   
 368.600   138.689   3.411     9.390  10.032   2.538    66.624  -0.036   
 368.700   204.285   3.412     9.612   6.652   2.596    66.628  -0.037   
 368.800   152.745   3.410     9.591   9.798   2.542    66.628  -0.047   
 368.900   138.689   3.409     9.587   7.141   2.588    66.626  -0.051   
 369.000   157.430   3.411     9.549  11.708   2.510    66.632  -0.049   
 369.100   110.576   3.394     9.528  10.260   2.535    66.626  -0.054   
 369.200   138.689   3.389     9.462   6.603   2.597    66.637  -0.047   
 369.300   148.060   3.391     9.640   9.291   2.551    66.643  -0.045   
 369.400   162.116   3.392    11.630   4.249   2.637    66.647  -0.033   
 369.500   101.205   3.394    12.068   1.623   2.682    66.661  -0.030   
 369.600   119.947   3.395    11.888   7.941   2.574    66.663  -0.032   
 369.700   129.318   3.392    11.317  11.560   2.512    66.665  -0.012   
 369.800   129.318   3.395    10.786   7.634   2.579    66.674  0.004    
 369.900   194.914   3.393     9.848   6.131   2.605    66.683  -0.003   
 370.000    96.520   3.386     9.591   7.916   2.575    66.675  0.013    
 370.100   119.947   3.388     9.570  13.713   2.476    66.691  0.008    
 370.200   190.228   3.403     9.770   7.085   2.589    66.691  0.013    
 370.300   162.116   3.407    10.135   3.054   2.658    66.692  0.020    
 370.400   166.801   3.405     9.600   4.152   2.639    66.694  0.024    
 370.500   157.430   3.406     9.566   7.132   2.588    66.694  0.025    
 370.600   143.374   3.411    10.176   7.335   2.585    66.696  0.011    
 370.700   162.116   3.411    10.836   5.286   2.620    66.686  0.000    
 370.800   213.656   3.404     9.632   4.288   2.637    66.679  -0.001   
 370.900   157.430   3.393     9.646   2.546   2.666    66.678  -0.014   
 371.000   138.689   3.410    10.681  10.124   2.537    66.678  -0.018   
 371.100   157.430   3.396    10.151   4.883   2.627    66.683  -0.029   
 371.200   138.689   3.391     9.561   8.185   2.570    66.679  -0.041   
 371.300   134.003   3.391     9.591   5.992   2.608    66.674  -0.046   
 371.400   110.576   3.403    11.524  10.946   2.523    66.670  -0.042   
 371.500   162.116   3.413    12.012  10.569   2.529    66.671  -0.050   
 371.600   152.745   3.411    13.090   9.714   2.544    66.675  -0.047   
 371.700   166.801   3.409    11.591   3.844   2.644    66.679  -0.057   
 371.800   171.487   3.411    10.306   8.788   2.560    66.679  -0.038   
 371.900   199.599   3.413     9.596   8.001   2.573    66.692  -0.040   
 372.000   110.576   3.417     9.570  10.954   2.523    66.701  -0.032   
 372.100   171.487   3.421     9.124   6.129   2.605    66.708  -0.029   
 372.200   119.947   3.422     9.042  12.217   2.501    66.715  -0.036   
 372.300   162.116   3.425     9.326   7.192   2.587    66.716  -0.050   
 372.400   129.318   3.419     8.977   5.789   2.611    66.713  -0.042   
 372.500   119.947   3.408     8.969  10.071   2.538    66.725  -0.047   
 372.600   185.543   3.411     8.973   3.535   2.650    66.726  -0.053   
 372.700   129.318   3.396     9.078   7.095   2.589    66.736  -0.055   
 372.800   185.543   3.384     9.543   2.466   2.668    66.730  -0.045   
 372.900   157.430   3.406     9.938   8.387   2.567    66.741  -0.049   
 373.000   157.430   3.413     9.973   5.913   2.609    66.740  -0.057   
 373.100   110.576   3.414    10.790   6.114   2.605    66.744  -0.053   
 373.200   152.745   3.421    11.899   1.092   2.691    66.751  -0.049   
 373.300   134.003   3.427    14.472   0.555   2.701    66.763  -0.059   
 373.400   134.003   3.424    12.005   3.931   2.643    66.767  -0.053   
 373.500   138.689   3.421     9.570   1.712   2.681    66.774  -0.040   
 373.600   105.891   3.422     9.570   8.401   2.566    66.788  -0.045   
 373.700   166.801   3.424     9.570   2.481   2.668    66.786  -0.051   
 373.800   157.430   3.430    11.591   4.278   2.637    66.786  -0.055   
 373.900    87.149   3.432    12.435   3.943   2.643    66.788  -0.041   
 374.000   134.003   3.427     9.095   7.317   2.585    66.800  -0.043   
 374.100   157.430   3.423     8.933   6.418   2.600    66.804  -0.036   
 374.200   129.318   3.422     9.489   9.494   2.548    66.812  -0.030   
 374.300   157.430   3.418     9.704   4.472   2.634    66.827  -0.032   
 374.400   115.262   3.416     9.566   3.667   2.647    66.827  -0.034   
 374.500   199.599   3.416     9.575   3.971   2.642    66.828  -0.049   
 374.600   143.374   3.416     9.774   2.533   2.667    66.831  -0.036   
 374.700   166.801   3.390     9.480   2.786   2.662    66.837  -0.037   
 374.800   124.632   3.406     8.985   7.064   2.589    66.844  -0.038   
 374.900   143.374   3.423     9.042   5.761   2.611    66.841  -0.041   
 375.000   101.205   3.421     8.993   7.293   2.585    66.848  -0.049   
 375.100   124.632   3.420     9.271   5.546   2.615    66.848  -0.033   
 375.200   185.543   3.421    10.807   7.068   2.589    66.857  -0.025   
 375.300   162.116   3.422    17.336   6.522   2.598    66.858  -0.030   
 375.400   134.003   3.422    13.014   5.737   2.612    66.862  -0.004   
 375.500   115.262   3.420     9.746   8.099   2.572    66.879  -0.022   
 375.600   157.430   3.409     8.246   6.891   2.592    66.873  -0.009   
 375.700   185.543   3.413     7.698  10.586   2.529    66.881  -0.017   
 375.800   134.003   3.414     7.742   9.663   2.545    66.879  -0.017   
 375.900   185.543   3.412     8.315   4.463   2.634    66.889  -0.005   
 376.000   129.318   3.421     8.824   7.846   2.576    66.896  -0.014   
 376.100   185.543   3.418     8.855   0.779   2.697    66.890  -0.030   
 376.200   162.116   3.420     8.728   6.774   2.594    66.883  -0.016   
 376.300   162.116   3.416     8.926  12.622   2.494    66.892  -0.024   
 376.400   143.374   3.412     9.237  10.781   2.526    66.883  -0.011   
 376.500   166.801   3.411     9.587   1.859   2.678    66.895  -0.028   
 376.600   162.116   3.411     9.354   5.778   2.611    66.890  -0.017   
 376.700   138.689   3.407     8.514   5.966   2.608    66.896  -0.021   
 376.800   171.487   3.398     7.945   7.831   2.576    66.906  -0.012   
