~Version Information
 VERS.                2.0:  CWLS LOG ASCII STANDARD -VERSION 2.0
 WRAP.                 NO:  ONE LINE PER DEPTH STEP
~WELL INFORMATION BLOCK
#MNEM.UNIT       DATA		            DESCRIPTION OF MNEMONIC
#---------    -------------            ------------------------
 STRT.FT  12.700                         :START DEPTH
 STOP.FT  552.200                        :STOP DEPTH
 STEP.FT  0.100                          :STEP    UP_HOLE  
 NULL.    -999.25                        :NULL VALUE
 COMP.                             usgs  :COMPANY
 WELL.   CL1                                                           :WELL
 FLD .                       Candy Lane  :FIELD
 LOC .  Lat 38.61717 Long 107.90174      :LOCATION
 CNTY.                         Montrose  :COUNTY
 STAT.                     CO            :STATE
 SRVC.           None                    :SERVICE COMPANY
 DATE.   11/10/2005                      :LOG DATE
 API .                                   :API NUMBER
 LIC .                                   :LICENSE NUMBER
~Curve Information Block
#MNEM.UNIT      API CODE     Curve Description
#---------    -------------  ------------------------
 DEPT     .FT        00 001 00 00          :  1  DEPTH   
 GAMMA    .CPS       00 310 00 00          :  2                GAMMA
 CALIPER  .INCH      00 280 00 00          :  3              CALIPER
~Parameter Information Block
#MNEM.UNIT   Information     Description
#---------- ---------------  ------------------------
 FILE.      ORIGINAL           :File Type
 FIID.      9074C              :File Type Identifier
 VERS.      3.58F              :System Version
 SER .      1                  :System Serial Number
 TRUK.      .601567            :Truck Calibration Number
 TOOL.         877             :Tool Serial Number
 TIME.      1245               :Time    HrHrMinMin
 LAT .                         :Latitude
 LON .                         :Longitude
 LMF .          None           :Log Measured From
 DMF .            GL           :Driller Measured From
 PD  .          None           :Permanent Data
 PDEV.          None           :Elevation Permanent Data
 EKB .M         None           :Elevation Kelly Bushing
 ELEV.DF         550           :Elevation DF
 EGL .M         None           :Elevation Ground Level
 DRDP.           550           :Driller's Depth
 CASD.       8.2               :Casing Diameter
 CASB.            20           :Casing Bottom
 CASX.         steel           :Casing Type
 CAST.         0               :Casing Thickness
 TNOC.          None           :Time Circulation Stopped
 LOGU.       None              :Logging Unit
 RECB.         bscorland       :Recorded By
 OSR1.          None           :Other Services
 OSR2.          None           :Other Services
 OSR3.          None           :Other Services
 BS  .MM       5.875           :Bit Size
 MST .                         :Mean Surface Temperature
 TGRD.        0                :Temperature Gradiant
 MAGN.             0           :Magnetic Declination
 MDEN.      2.71               :Density Matrix
 MATR.       Dolomite          :Neutron Matrix
 DTMT.            54           :Delta T Matrix
 DTFL.                         :Delta T Fluid
 MUDS.               0         :Mud Sample Source
 MRS .           0             :Mud Resistivity
 MTP .           0             :Mud Temperature
 MFRS.                         :Resistivity Mud Filtrate
 MFTP.                         :Temperature Mud Filtrate
 MCRS.         0               :Resistivity Mud Cake
 MCTP.                         :Temperature Mud Cake
 FTYP.             0           :Fluid Type
 FD  .K/M3                     :Fluid Density
 DFV .S                        :Fluid Viscosity
 FPH .                         :Fuild PH
 ELCO.        2500             :Electron Cutoff
~Other Information
#MNEM.UNIT  Information      Description
#---------- ---------------  ------------------------
# -------------------------- 
~A DEPTH  GAMMA     CALIPER 
# ...
 261.100   200.000   5.094  
 261.200   230.000   5.094  
 261.300   245.000   5.092  
 261.400   155.000   5.094  
 261.500   180.000   5.092  
 261.600   210.000   5.094  
 261.700   253.333   5.094  
 261.800   285.000   5.094  
 261.900   245.000   5.094  
 262.000   245.000   5.094  
 262.100   190.000   5.094  
 262.200   150.000   5.094  
 262.300   215.000   5.092  
 262.400   235.000   5.094  
 262.500   175.000   5.094  
 262.600   215.000   5.092  
 262.700   200.000   5.094  
 262.800   230.000   5.092  
 262.900   225.000   5.092  
 263.000   250.000   5.094  
 263.100   160.000   5.092  
 263.200   185.000   5.097  
 263.300   150.000   5.097  
 263.400   155.000   5.097  
 263.500   220.000   5.097  
 263.600   180.000   5.097  
 263.700   265.000   5.101  
 263.800   185.000   5.101  
 263.900   223.333   5.101  
 264.000   185.000   5.101  
 264.100   190.000   5.101  
 264.200   225.000   5.101  
 264.300   175.000   5.101  
 264.400   180.000   5.101  
 264.500   220.000   5.101  
 264.600   315.000   5.097  
 264.700   280.000   5.097  
 264.800   195.000   5.099  
 264.900   220.000   5.099  
 265.000   220.000   5.099  
 265.100   280.000   5.099  
 265.200   245.000   5.101  
 265.300   210.000   5.099  
 265.400   215.000   5.099  
 265.500   200.000   5.101  
 265.600   205.000   5.101  
 265.700   175.000   5.101  
 265.800   200.000   5.101  
 265.900   235.000   5.103  
 266.000   273.333   5.101  
 266.100   240.000   5.101  
 266.200   195.000   5.097  
 266.300   195.000   5.097  
 266.400   190.000   5.095  
 266.500   220.000   5.094  
 266.600   260.000   5.092  
 266.700   190.000   5.092  
 266.800   280.000   5.094  
 266.900   260.000   5.094  
 267.000   190.000   5.094  
 267.100   190.000   5.094  
 267.200   245.000   5.094  
 267.300   235.000   5.094  
 267.400   245.000   5.092  
 267.500   245.000   5.094  
 267.600   255.000   5.094  
 267.700   233.333   5.094  
 267.800   210.000   5.094  
 267.900   205.000   5.094  
 268.000   250.000   5.094  
 268.100   200.000   5.095  
 268.200   225.000   5.094  
 268.300   190.000   5.095  
 268.400   295.000   5.095  
 268.500   230.000   5.094  
 268.600   285.000   5.094  
 268.700   225.000   5.094  
 268.800   215.000   5.094  
 268.900   250.000   5.097  
 269.000   175.000   5.097  
 269.100   220.000   5.094  
 269.200   250.000   5.094  
 269.300   190.000   5.094  
 269.400   255.000   5.095  
 269.500   160.000   5.094  
 269.600   220.000   5.094  
 269.700   190.000   5.092  
 269.800   180.000   5.094  
 269.900   255.000   5.094  
 270.000   170.000   5.094  
 270.100   205.000   5.094  
 270.200   190.000   5.094  
 270.300   220.000   5.092  
 270.400   200.000   5.092  
 270.500   205.000   5.094  
 270.600   246.667   5.092  
 270.700   165.000   5.094  
 270.800   205.000   5.092  
 270.900   195.000   5.094  
 271.000   240.000   5.092  
 271.100   230.000   5.094  
 271.200   175.000   5.092  
 271.300   135.000   5.092  
 271.400   260.000   5.092  
 271.500   190.000   5.092  
 271.600   245.000   5.094  
 271.700   223.333   5.092  
 271.800   165.000   5.092  
 271.900   170.000   5.094  
 272.000   210.000   5.092  
 272.100   235.000   5.094  
 272.200   315.000   5.094  
 272.300   200.000   5.094  
 272.400   230.000   5.092  
 272.500   190.000   5.092  
 272.600   235.000   5.092  
 272.700   226.667   5.092  
 272.800   185.000   5.090  
 272.900   205.000   5.094  
 273.000   270.000   5.088  
 273.100   220.000   5.094  
 273.200   220.000   5.092  
 273.300   190.000   5.092  
 273.400   230.000   5.092  
 273.500   203.333   5.092  
 273.600   230.000   5.092  
 273.700   185.000   5.090  
 273.800   135.000   5.092  
 273.900   215.000   5.094  
 274.000   165.000   5.092  
 274.100   175.000   5.094  
 274.200   260.000   5.092  
 274.300   185.000   5.092  
 274.400   255.000   5.092  
 274.500   255.000   5.092  
 274.600   215.000   5.095  
 274.700   205.000   5.094  
 274.800   190.000   5.094  
 274.900   165.000   5.092  
 275.000   145.000   5.094  
 275.100   175.000   5.094  
 275.200   220.000   5.094  
 275.300   245.000   5.094  
 275.400   175.000   5.095  
 275.500   150.000   5.094  
 275.600   180.000   5.094  
 275.700   190.000   5.094  
 275.800   220.000   5.094  
 275.900   135.000   5.097  
 276.000   205.000   5.095  
 276.100   205.000   5.095  
 276.200   180.000   5.095  
 276.300   190.000   5.095  
 276.400   195.000   5.095  
 276.500   230.000   5.096  
 276.600   165.000   5.095  
 276.700   185.000   5.097  
 276.800   195.000   5.095  
 276.900   210.000   5.097  
 277.000   160.000   5.097  
 277.100   185.000   5.095  
 277.200   210.000   5.095  
 277.300   190.000   5.096  
 277.400   195.000   5.095  
 277.500   225.000   5.097  
 277.600   215.000   5.097  
 277.700   176.667   5.095  
 277.800   160.000   5.097  
 277.900   230.000   5.097  
 278.000   165.000   5.097  
 278.100   175.000   5.095  
 278.200   205.000   5.095  
 278.300   205.000   5.094  
 278.400   225.000   5.090  
 278.500   190.000   5.090  
 278.600   180.000   5.092  
 278.700   203.333   5.090  
 278.800   185.000   5.092  
 278.900   215.000   5.090  
 279.000   195.000   5.090  
 279.100   220.000   5.092  
 279.200   215.000   5.090  
 279.300   195.000   5.092  
 279.400   185.000   5.090  
 279.500   173.333   5.092  
 279.600   190.000   5.095  
 279.700   155.000   5.099  
 279.800   165.000   5.097  
 279.900   190.000   5.097  
 280.000   195.000   5.097  
 280.100   180.000   5.097  
 280.200   160.000   5.097  
 280.300   180.000   5.101  
 280.400   165.000   5.101  
 280.500   180.000   5.099  
 280.600   160.000   5.097  
 280.700   170.000   5.099  
 280.800   220.000   5.099  
 280.900   185.000   5.095  
 281.000   215.000   5.095  
 281.100   220.000   5.095  
 281.200   200.000   5.090  
 281.300   230.000   5.094  
 281.400   235.000   5.092  
 281.500   155.000   5.092  
 281.600   190.000   5.090  
 281.700   173.333   5.090  
 281.800   170.000   5.090  
 281.900   245.000   5.092  
 282.000   245.000   5.090  
 282.100   220.000   5.090  
 282.200   220.000   5.090  
 282.300   215.000   5.090  
 282.400   235.000   5.090  
 282.500   250.000   5.090  
 282.600   275.000   5.090  
 282.700   205.000   5.088  
 282.800   215.000   5.088  
 282.900   150.000   5.088  
 283.000   200.000   5.088  
 283.100   230.000   5.090  
 283.200   180.000   5.090  
 283.300   195.000   5.092  
 283.400   215.000   5.097  
 283.500   180.000   5.095  
 283.600   205.000   5.097  
 283.700   200.000   5.097  
 283.800   135.000   5.097  
 283.900   215.000   5.097  
 284.000   210.000   5.097  
 284.100   185.000   5.095  
 284.200   180.000   5.095  
 284.300   175.000   5.095  
 284.400   225.000   5.095  
 284.500   255.000   5.097  
 284.600   153.333   5.097  
 284.700   160.000   5.099  
 284.800   170.000   5.103  
 284.900   170.000   5.107  
 285.000   155.000   5.123  
 285.100   145.000   5.131  
 285.200   225.000   5.101  
 285.300   160.000   5.090  
 285.400   140.000   5.094  
 285.500   166.667   5.101  
 285.600   195.000   5.105  
 285.700   170.000   5.105  
 285.800   165.000   5.103  
 285.900   205.000   5.103  
 286.000   155.000   5.105  
 286.100   230.000   5.101  
 286.200   175.000   5.101  
 286.300   175.000   5.101  
 286.400   175.000   5.094  
 286.500   150.000   5.090  
 286.600   170.000   5.084  
 286.700   210.000   5.084  
 286.800   120.000   5.082  
 286.900   195.000   5.080  
 287.000   185.000   5.082  
 287.100   215.000   5.082  
 287.200   115.000   5.082  
 287.300   200.000   5.083  
 287.400   125.000   5.082  
 287.500   230.000   5.082  
 287.600   180.000   5.082  
 287.700   160.000   5.080  
 287.800   230.000   5.082  
 287.900   165.000   5.082  
 288.000   175.000   5.084  
 288.100   185.000   5.082  
 288.200   150.000   5.082  
 288.300   210.000   5.086  
 288.400   156.667   5.086  
 288.500   175.000   5.090  
 288.600   170.000   5.090  
