~Version Information
 VERS.                2.0:  CWLS LOG ASCII STANDARD -VERSION 2.0
 WRAP.                 NO:  ONE LINE PER DEPTH STEP
~WELL INFORMATION BLOCK
#MNEM.UNIT       DATA		            DESCRIPTION OF MNEMONIC
#---------    -------------            ------------------------
 STRT.FT  12.700                         :START DEPTH
 STOP.FT  552.200                        :STOP DEPTH
 STEP.FT  0.100                          :STEP    UP_HOLE  
 NULL.    -999.25                        :NULL VALUE
 COMP.                             usgs  :COMPANY
 WELL.   CL1                                                           :WELL
 FLD .                       Candy Lane  :FIELD
 LOC .  Lat 38.61717 Long 107.90174      :LOCATION
 CNTY.                         Montrose  :COUNTY
 STAT.                     CO            :STATE
 SRVC.           None                    :SERVICE COMPANY
 DATE.   11/10/2005                      :LOG DATE
 API .                                   :API NUMBER
 LIC .                                   :LICENSE NUMBER
~Curve Information Block
#MNEM.UNIT      API CODE     Curve Description
#---------    -------------  ------------------------
 DEPT     .FT        00 001 00 00          :  1  DEPTH   
 GAMMA    .CPS       00 310 00 00          :  2                GAMMA
 CALIPER  .INCH      00 280 00 00          :  3              CALIPER
~Parameter Information Block
#MNEM.UNIT   Information     Description
#---------- ---------------  ------------------------
 FILE.      ORIGINAL           :File Type
 FIID.      9074C              :File Type Identifier
 VERS.      3.58F              :System Version
 SER .      1                  :System Serial Number
 TRUK.      .601567            :Truck Calibration Number
 TOOL.         877             :Tool Serial Number
 TIME.      1245               :Time    HrHrMinMin
 LAT .                         :Latitude
 LON .                         :Longitude
 LMF .          None           :Log Measured From
 DMF .            GL           :Driller Measured From
 PD  .          None           :Permanent Data
 PDEV.          None           :Elevation Permanent Data
 EKB .M         None           :Elevation Kelly Bushing
 ELEV.DF         550           :Elevation DF
 EGL .M         None           :Elevation Ground Level
 DRDP.           550           :Driller's Depth
 CASD.       8.2               :Casing Diameter
 CASB.            20           :Casing Bottom
 CASX.         steel           :Casing Type
 CAST.         0               :Casing Thickness
 TNOC.          None           :Time Circulation Stopped
 LOGU.       None              :Logging Unit
 RECB.         bscorland       :Recorded By
 OSR1.          None           :Other Services
 OSR2.          None           :Other Services
 OSR3.          None           :Other Services
 BS  .MM       5.875           :Bit Size
 MST .                         :Mean Surface Temperature
 TGRD.        0                :Temperature Gradiant
 MAGN.             0           :Magnetic Declination
 MDEN.      2.71               :Density Matrix
 MATR.       Dolomite          :Neutron Matrix
 DTMT.            54           :Delta T Matrix
 DTFL.                         :Delta T Fluid
 MUDS.               0         :Mud Sample Source
 MRS .           0             :Mud Resistivity
 MTP .           0             :Mud Temperature
 MFRS.                         :Resistivity Mud Filtrate
 MFTP.                         :Temperature Mud Filtrate
 MCRS.         0               :Resistivity Mud Cake
 MCTP.                         :Temperature Mud Cake
 FTYP.             0           :Fluid Type
 FD  .K/M3                     :Fluid Density
 DFV .S                        :Fluid Viscosity
 FPH .                         :Fuild PH
 ELCO.        2500             :Electron Cutoff
~Other Information
#MNEM.UNIT  Information      Description
#---------- ---------------  ------------------------
# -------------------------- 
~A DEPTH  GAMMA     CALIPER 
# ...
 537.100   145.000   5.062  
 537.200   155.000   5.058  
 537.300   193.333   5.058  
 537.400   180.000   5.060  
 537.500   175.000   5.062  
 537.600   215.000   5.060  
 537.700   145.000   5.060  
 537.800   145.000   5.062  
 537.900   200.000   5.060  
 538.000   130.000   5.062  
 538.100   220.000   5.058  
 538.200   170.000   5.056  
 538.300   195.000   5.058  
 538.400   185.000   5.058  
 538.500   150.000   5.060  
 538.600   215.000   5.058  
 538.700   185.000   5.056  
 538.800   205.000   5.056  
 538.900   185.000   5.058  
 539.000   213.333   5.054  
 539.100   185.000   5.049  
 539.200   130.000   5.046  
 539.300   195.000   5.046  
 539.400   130.000   5.044  
 539.500   265.000   5.040  
 539.600   175.000   5.040  
 539.700   160.000   5.038  
 539.800   190.000   5.038  
 539.900   225.000   5.038  
 540.000   210.000   5.037  
 540.100   135.000   5.038  
 540.200   186.667   5.035  
 540.300   175.000   5.037  
 540.400   150.000   5.038  
 540.500   240.000   5.038  
 540.600   190.000   5.038  
 540.700   215.000   5.038  
 540.800   155.000   5.038  
 540.900   156.667   5.042  
 541.000   235.000   5.038  
 541.100   300.000   5.038  
 541.200   305.000   5.037  
 541.300   400.000   5.074  
 541.400   370.000   5.103  
 541.500   350.000   5.103  
 541.600   250.000   5.088  
 541.700   255.000   5.076  
 541.800   200.000   5.062  
 541.900   230.000   5.052  
 542.000   270.000   5.052  
 542.100   180.000   5.050  
 542.200   210.000   5.054  
 542.300   176.667   5.054  
 542.400   215.000   5.058  
 542.500   160.000   5.060  
 542.600   230.000   5.062  
 542.700   180.000   5.064  
 542.800   190.000   5.070  
 542.900   160.000   5.082  
 543.000   135.000   5.070  
 543.100   195.000   5.062  
 543.200   145.000   5.060  
 543.300   130.000   5.054  
 543.400   100.000   5.058  
 543.500   120.000   5.056  
 543.600   130.000   5.048  
 543.700   150.000   5.050  
 543.800   175.000   5.070  
 543.900   140.000   5.066  
 544.000   160.000   5.057  
 544.100   155.000   5.058  
 544.200   140.000   5.058  
 544.300   110.000   5.058  
 544.400   105.000   5.058  
 544.500   125.000   5.058  
 544.600   145.000   5.058  
 544.700   126.667   5.058  
 544.800   140.000   5.058  
 544.900   165.000   5.060  
 545.000   153.333   5.060  
 545.100   140.000   5.062  
 545.200   133.333   5.062  
 545.300   165.000   5.064  
 545.400   137.500   5.064  
 545.500   158.537   5.054  
 545.600     0.000   5.060  
 545.700     0.000   5.058  
 545.800     0.000   5.058  
 545.900     0.000   5.058  
 546.000     0.000   5.058  
 546.100     0.000   5.058  
 546.200     0.000   5.058  
 546.300     0.000   5.056  
 546.400     0.000   5.056  
 546.500     0.000   5.058  
 546.600     0.000   5.056  
 546.700     0.000   5.058  
 546.800     0.000   5.054  
 546.900     0.000   5.057  
 547.000     0.000   5.058  
 547.100     0.000   5.054  
 547.200     0.000   5.058  
 547.300     0.000   5.056  
 547.400     0.000   5.056  
 547.500     0.000   5.056  
 547.600     0.000   5.057  
 547.700     0.000   5.056  
 547.800     0.000   5.056  
 547.900     0.000   5.056  
 548.000     0.000   5.056  
 548.100     0.000   5.056  
 548.200     0.000   5.058  
 548.300     0.000   5.056  
 548.400     0.000   5.058  
 548.500     0.000   5.058  
 548.600     0.000   5.060  
 548.700     0.000   5.060  
 548.800     0.000   5.062  
 548.900     0.000   5.064  
 549.000     0.000   5.066  
 549.100     0.000   5.066  
 549.200     0.000   5.066  
 549.300     0.000   5.066  
 549.400     0.000   5.064  
 549.500     0.000   5.068  
 549.600     0.000   5.070  
 549.700     0.000   5.066  
 549.800     0.000   5.066  
 549.900     0.000   5.068  
 550.000     0.000   5.064  
 550.100     0.000   5.070  
 550.200     0.000   5.070  
 550.300     0.000   5.072  
 550.400     0.000   5.074  
 550.500     0.000   5.078  
 550.600     0.000   5.074  
 550.700     0.000   5.082  
 550.800     0.000   5.074  
 550.900     0.000   5.080  
 551.000     0.000   5.086  
 551.100     0.000   5.084  
 551.200     0.000   5.078  
 551.300     0.000   5.086  
 551.400     0.000   5.075  
 551.500     0.000   5.076  
 551.600     0.000   5.080  
 551.700     0.000   5.076  
 551.800     0.000   5.091  
 551.900     0.000   5.094  
 552.000     0.000   5.066  
 552.100     0.000   5.056  
 552.200     0.000   5.093  
