~Version Information
 VERS.                2.0:  CWLS LOG ASCII STANDARD -VERSION 2.0
 WRAP.                 NO:  ONE LINE PER DEPTH STEP
~WELL INFORMATION BLOCK
#MNEM.UNIT       DATA		            DESCRIPTION OF MNEMONIC
#---------    -------------            ------------------------
 STRT.FT  6.300                          :START DEPTH
 STOP.FT  557.000                        :STOP DEPTH
 STEP.FT  0.100                          :STEP    UP_HOLE  
 NULL.    -999.25                        :NULL VALUE
 COMP.                             usgs  :COMPANY
 WELL.   CL1                                                           :WELL
 FLD .                       Candy Lane  :FIELD
 LOC . Lat 38.61717 Long 107.90174       :LOCATION
 CNTY.                         Montrose  :COUNTY
 STAT.                     CO            :STATE
 SRVC.           None                    :SERVICE COMPANY
 DATE.   11/10/2005                      :LOG DATE
 API .                                   :API NUMBER
 LIC .                                   :LICENSE NUMBER
~Curve Information Block
#MNEM.UNIT      API CODE     Curve Description
#---------    -------------  ------------------------
 DEPT     .FT        00 001 00 00          :  1  DEPTH   
 GAMMA    .API-GR    00 310 00 00          :  2                GAMMA
 CALIPER  .INCH      00 280 00 00          :  3              CALIPER
 RES(SG)  .OHM-M     00 220 00 00          :  4              RES(SG)
 POR(DEN) .PERCENT   00 890 00 00          :  5             POR(DEN)
 DEN(CDL) .G/CC      00 350 00 00          :  6             DEN(CDL)
 TEMP     .DEG F     00 660 00 00          :  7                 TEMP
 DEL TEMP .DEG F     00 000 00 00          :  8             DEL TEMP
~Parameter Information Block
#MNEM.UNIT   Information     Description
#---------- ---------------  ------------------------
 FILE.      ORIGINAL           :File Type
 FIID.      9139A              :File Type Identifier
 VERS.      3.58F              :System Version
 SER .      1                  :System Serial Number
 TRUK.      .601567            :Truck Calibration Number
 TOOL.        1239             :Tool Serial Number
 TIME.      1635               :Time    HrHrMinMin
 LAT .                         :Latitude
 LON .                         :Longitude
 LMF .          None           :Log Measured From
 DMF .            GL           :Driller Measured From
 PD  .          None           :Permanent Data
 PDEV.          None           :Elevation Permanent Data
 EKB .M         None           :Elevation Kelly Bushing
 ELEV.DF         550           :Elevation DF
 EGL .M         None           :Elevation Ground Level
 DRDP.           550           :Driller's Depth
 CASD.       8.2               :Casing Diameter
 CASB.            20           :Casing Bottom
 CASX.         steel           :Casing Type
 CAST.         0               :Casing Thickness
 TNOC.          None           :Time Circulation Stopped
 LOGU.       None              :Logging Unit
 RECB.         bscorland       :Recorded By
 OSR1.          None           :Other Services
 OSR2.          None           :Other Services
 OSR3.          None           :Other Services
 BS  .MM       5.875           :Bit Size
 MST .                         :Mean Surface Temperature
 TGRD.        0                :Temperature Gradiant
 MAGN.             0           :Magnetic Declination
 MDEN.      2.71               :Density Matrix
 MATR.       Dolomite          :Neutron Matrix
 DTMT.            54           :Delta T Matrix
 DTFL.                         :Delta T Fluid
 MUDS.               0         :Mud Sample Source
 MRS .           0             :Mud Resistivity
 MTP .           0             :Mud Temperature
 MFRS.                         :Resistivity Mud Filtrate
 MFTP.                         :Temperature Mud Filtrate
 MCRS.         0               :Resistivity Mud Cake
 MCTP.                         :Temperature Mud Cake
 FTYP.             0           :Fluid Type
 FD  .K/M3                     :Fluid Density
 DFV .S                        :Fluid Viscosity
 FPH .                         :Fuild PH
 ELCO.        2500             :Electron Cutoff
~Other Information
#MNEM.UNIT  Information      Description
#---------- ---------------  ------------------------
# -------------------------- 
~A DEPTH  GAMMA     CALIPER RES(SG)   POR(DEN) DEN(CDL) TEMP    DEL TEMP 
# ...
 475.000   143.374   3.419     9.630   7.379   2.584    69.388  -0.013   
 475.100   101.205   3.418     9.643   7.970   2.574    69.387  -0.020   
 475.200   138.689   3.415     9.653   0.867   2.695    69.388  -0.008   
 475.300    91.834   3.412     9.566   5.477   2.616    69.396  -0.007   
 475.400    91.834   3.411     9.534  -0.515   2.719    69.391  -0.013   
 475.500    68.407   3.413     9.584  -0.158   2.713    69.399  -0.017   
 475.600    96.520   3.410     9.597   3.625   2.648    69.396  -0.007   
 475.700    96.520   3.412    10.603  -0.661   2.721    69.407  -0.020   
 475.800   101.205   3.415    10.542   0.274   2.705    69.400  -0.030   
 475.900   101.205   3.415    10.761   1.505   2.684    69.391  -0.017   
 476.000    82.464   3.416    10.872   5.850   2.610    69.400  -0.016   
 476.100   105.891   3.420    10.848  -8.391   2.853    69.408  -0.037   
 476.200   119.947   3.415    10.755   2.361   2.670    69.404  -0.041   
 476.300   148.060   3.412    10.875   2.983   2.659    69.397  -0.033   
 476.400   162.116   3.412    10.866   1.384   2.686    69.412  -0.033   
 476.500   110.576   3.411    11.267  -0.538   2.719    69.413  -0.032   
 476.600   162.116   3.413    11.543   1.900   2.678    69.413  -0.033   
 476.700   105.891   3.411    11.531   3.942   2.643    69.420  -0.038   
 476.800   143.374   3.413    11.781   7.736   2.578    69.421  -0.047   
 476.900   101.205   3.416    11.161   2.060   2.675    69.417  -0.037   
 477.000   124.632   3.418    10.872   1.402   2.686    69.424  -0.032   
 477.100   180.858   3.419    10.698   1.911   2.677    69.441  -0.034   
 477.200   101.205   3.418    10.614   3.646   2.648    69.438  -0.033   
 477.300   105.891   3.421    10.550   0.971   2.693    69.445  -0.032   
 477.400    82.464   3.420    10.608   8.086   2.572    69.446  -0.032   
 477.500    96.520   3.421    10.470   3.848   2.644    69.445  -0.026   
 477.600   143.374   3.420     9.690   2.954   2.659    69.453  -0.026   
 477.700   110.576   3.418     9.570   2.306   2.671    69.459  -0.022   
 477.800   138.689   3.419     9.570   2.294   2.671    69.465  -0.022   
 477.900    77.778   3.419     9.570   1.753   2.680    69.461  -0.018   
 478.000   124.632   3.416     9.570   5.297   2.619    69.472  -0.020   
 478.100   148.060   3.414     9.579   2.497   2.667    69.472  -0.029   
 478.200   124.632   3.415     9.732   4.995   2.625    69.478  -0.025   
 478.300   110.576   3.417     9.760   3.815   2.645    69.478  -0.040   
 478.400   101.205   3.415     9.904   3.013   2.658    69.476  -0.038   
 478.500   115.262   3.416     9.958  -3.893   2.777    69.479  -0.042   
 478.600    96.520   3.414    10.866   3.639   2.648    69.486  -0.042   
 478.700   148.060   3.414    11.558   3.636   2.648    69.487  -0.049   
 478.800    77.778   3.413    10.807   2.863   2.661    69.483  -0.026   
 478.900   101.205   3.413    10.664   0.232   2.706    69.491  -0.042   
 479.000   138.689   3.414    10.594   1.195   2.690    69.492  -0.034   
 479.100   115.262   3.414    10.590   6.748   2.595    69.507  -0.032   
 479.200   105.891   3.416    10.541   3.227   2.655    69.503  -0.030   
 479.300   180.858   3.420    10.345   5.999   2.607    69.516  -0.026   
 479.400   176.172   3.419    10.124   5.598   2.614    69.517  -0.016   
 479.500   124.632   3.424     9.941  -0.084   2.711    69.528  -0.014   
 479.600   119.947   3.423     9.631   6.355   2.601    69.529  -0.013   
 479.700   105.891   3.424     9.469   5.215   2.621    69.532  -0.033   
 479.800   124.632   3.425     9.549  -1.345   2.733    69.517  -0.030   
 479.900   152.745   3.430     9.781   2.183   2.673    69.534  -0.024   
 480.000   148.060   3.432    10.182   3.344   2.653    69.541  -0.050   
 480.100   171.487   3.430     9.555   2.548   2.666    69.534  -0.029   
 480.200   138.689   3.430     9.570   1.450   2.685    69.546  -0.037   
 480.300    91.834   3.427     9.445   6.478   2.599    69.544  -0.050   
 480.400   180.858   3.427     9.362   8.258   2.569    69.544  -0.046   
 480.500   138.689   3.425     9.314   3.822   2.645    69.544  -0.055   
 480.600   134.003   3.423     9.233   3.847   2.644    69.545  -0.057   
 480.700   115.262   3.423     9.413   8.866   2.558    69.550  -0.046   
 480.800   152.745   3.422     9.380  -0.915   2.726    69.565  -0.046   
 480.900    91.834   3.423     9.511   2.318   2.670    69.565  -0.030   
 481.000   134.003   3.420     9.653   8.891   2.558    69.584  -0.028   
 481.100   185.543   3.421     9.928   4.487   2.633    69.575  -0.036   
 481.200   115.262   3.420     9.853   2.170   2.673    69.580  -0.020   
 481.300   115.262   3.418    10.109   2.575   2.666    69.594  -0.032   
 481.400   129.318   3.416    10.172  -2.653   2.755    69.590  -0.030   
 481.500   152.745   3.414    10.361   1.092   2.691    69.600  -0.018   
 481.600   110.576   3.414     9.922  -1.218   2.731    69.607  -0.022   
 481.700   162.116   3.416     9.327   5.938   2.608    69.611  -0.022   
 481.800   129.318   3.415     9.403   2.462   2.668    69.611  -0.017   
 481.900   119.947   3.414    10.073   5.834   2.610    69.615  -0.042   
 482.000   171.487   3.416    10.120   9.570   2.546    69.603  -0.017   
 482.100    87.149   3.416     9.606   8.569   2.563    69.616  -0.018   
 482.200   157.430   3.416     9.792   8.492   2.565    69.613  -0.025   
 482.300   176.172   3.417    10.115   6.098   2.606    69.621  -0.013   
 482.400   143.374   3.420    10.381   5.440   2.617    69.631  -0.009   
 482.500   134.003   3.424     9.511   5.447   2.617    69.625  -0.005   
 482.600   143.374   3.425     9.340   6.847   2.593    69.633  -0.020   
 482.700   157.430   3.427     9.829   6.754   2.595    69.633  -0.008   
 482.800   119.947   3.424     9.772   5.246   2.620    69.632  0.000    
 482.900   143.374   3.424    10.044   5.919   2.609    69.645  -0.009   
 483.000   148.060   3.419     8.964   7.734   2.578    69.633  -0.012   
 483.100   190.228   3.421     9.046   7.664   2.579    69.632  -0.016   
 483.200   129.318   3.423     9.500   6.639   2.596    69.646  -0.012   
 483.300   157.430   3.425     9.310   8.933   2.557    69.644  -0.033   
 483.400   110.576   3.425     9.672   5.281   2.620    69.634  -0.033   
 483.500   115.262   3.424     9.723   1.332   2.687    69.638  -0.014   
 483.600   119.947   3.423     9.039   2.196   2.672    69.653  -0.036   
 483.700   119.947   3.423     8.477   3.220   2.655    69.640  -0.020   
 483.800    87.149   3.421     8.293   7.713   2.578    69.645  -0.036   
 483.900   110.576   3.418     8.905   5.714   2.612    69.642  -0.033   
 484.000   138.689   3.412     8.511  -2.576   2.754    69.644  -0.016   
 484.100   115.262   3.404     8.620   5.549   2.615    69.662  -0.017   
 484.200   134.003   3.400     8.364   2.302   2.671    69.656  -0.020   
 484.300   143.374   3.402     8.495   0.917   2.694    69.667  -0.016   
 484.400   138.689   3.403     8.486   1.428   2.686    69.671  -0.018   
 484.500   171.487   3.403     8.446   9.855   2.541    69.667  -0.018   
 484.600   129.318   3.402     8.105   5.962   2.608    69.675  -0.025   
 484.700   105.891   3.403     8.065   4.285   2.637    69.665  -0.025   
 484.800   129.318   3.406     7.969   5.793   2.611    69.678  -0.029   
 484.900   152.745   3.409     8.216   8.260   2.569    69.677  -0.040   
 485.000   119.947   3.413     7.570   6.255   2.603    69.678  -0.043   
 485.100   185.543   3.414     7.672   1.636   2.682    69.673  -0.034   
 485.200   152.745   3.412     7.637   2.946   2.660    69.687  -0.028   
 485.300   176.172   3.415     7.077   6.527   2.598    69.687  -0.051   
 485.400   129.318   3.419     6.892  11.186   2.519    69.686  -0.049   
 485.500   110.576   3.420     7.215   7.311   2.585    69.694  -0.057   
 485.600    82.464   3.420     7.405   5.392   2.618    69.690  -0.032   
 485.700   129.318   3.418     8.105   6.395   2.601    69.703  -0.038   
 485.800   119.947   3.422     9.424   3.892   2.643    69.706  -0.024   
