~Version Information
 VERS.                2.0:  CWLS LOG ASCII STANDARD -VERSION 2.0
 WRAP.                 NO:  ONE LINE PER DEPTH STEP
~WELL INFORMATION BLOCK
#MNEM.UNIT       DATA		            DESCRIPTION OF MNEMONIC
#---------    -------------            ------------------------
 STRT.FT  6.300                          :START DEPTH
 STOP.FT  557.000                        :STOP DEPTH
 STEP.FT  0.100                          :STEP    UP_HOLE  
 NULL.    -999.25                        :NULL VALUE
 COMP.                             usgs  :COMPANY
 WELL.   CL1                                                           :WELL
 FLD .                       Candy Lane  :FIELD
 LOC . Lat 38.61717 Long 107.90174       :LOCATION
 CNTY.                         Montrose  :COUNTY
 STAT.                     CO            :STATE
 SRVC.           None                    :SERVICE COMPANY
 DATE.   11/10/2005                      :LOG DATE
 API .                                   :API NUMBER
 LIC .                                   :LICENSE NUMBER
~Curve Information Block
#MNEM.UNIT      API CODE     Curve Description
#---------    -------------  ------------------------
 DEPT     .FT        00 001 00 00          :  1  DEPTH   
 GAMMA    .API-GR    00 310 00 00          :  2                GAMMA
 CALIPER  .INCH      00 280 00 00          :  3              CALIPER
 RES(SG)  .OHM-M     00 220 00 00          :  4              RES(SG)
 POR(DEN) .PERCENT   00 890 00 00          :  5             POR(DEN)
 DEN(CDL) .G/CC      00 350 00 00          :  6             DEN(CDL)
 TEMP     .DEG F     00 660 00 00          :  7                 TEMP
 DEL TEMP .DEG F     00 000 00 00          :  8             DEL TEMP
~Parameter Information Block
#MNEM.UNIT   Information     Description
#---------- ---------------  ------------------------
 FILE.      ORIGINAL           :File Type
 FIID.      9139A              :File Type Identifier
 VERS.      3.58F              :System Version
 SER .      1                  :System Serial Number
 TRUK.      .601567            :Truck Calibration Number
 TOOL.        1239             :Tool Serial Number
 TIME.      1635               :Time    HrHrMinMin
 LAT .                         :Latitude
 LON .                         :Longitude
 LMF .          None           :Log Measured From
 DMF .            GL           :Driller Measured From
 PD  .          None           :Permanent Data
 PDEV.          None           :Elevation Permanent Data
 EKB .M         None           :Elevation Kelly Bushing
 ELEV.DF         550           :Elevation DF
 EGL .M         None           :Elevation Ground Level
 DRDP.           550           :Driller's Depth
 CASD.       8.2               :Casing Diameter
 CASB.            20           :Casing Bottom
 CASX.         steel           :Casing Type
 CAST.         0               :Casing Thickness
 TNOC.          None           :Time Circulation Stopped
 LOGU.       None              :Logging Unit
 RECB.         bscorland       :Recorded By
 OSR1.          None           :Other Services
 OSR2.          None           :Other Services
 OSR3.          None           :Other Services
 BS  .MM       5.875           :Bit Size
 MST .                         :Mean Surface Temperature
 TGRD.        0                :Temperature Gradiant
 MAGN.             0           :Magnetic Declination
 MDEN.      2.71               :Density Matrix
 MATR.       Dolomite          :Neutron Matrix
 DTMT.            54           :Delta T Matrix
 DTFL.                         :Delta T Fluid
 MUDS.               0         :Mud Sample Source
 MRS .           0             :Mud Resistivity
 MTP .           0             :Mud Temperature
 MFRS.                         :Resistivity Mud Filtrate
 MFTP.                         :Temperature Mud Filtrate
 MCRS.         0               :Resistivity Mud Cake
 MCTP.                         :Temperature Mud Cake
 FTYP.             0           :Fluid Type
 FD  .K/M3                     :Fluid Density
 DFV .S                        :Fluid Viscosity
 FPH .                         :Fuild PH
 ELCO.        2500             :Electron Cutoff
~Other Information
#MNEM.UNIT  Information      Description
#---------- ---------------  ------------------------
# -------------------------- 
~A DEPTH  GAMMA     CALIPER RES(SG)   POR(DEN) DEN(CDL) TEMP    DEL TEMP 
# ...
 257.000   166.801   3.419    10.708  10.980   2.522    60.759  -0.064   
 257.100   134.003   3.418    10.110  10.165   2.536    60.754  -0.019   
 257.200   138.689   3.420    10.116   6.901   2.592    60.799  -0.051   
 257.300   148.060   3.419    10.139  11.076   2.521    60.770  -0.072   
 257.400   246.454   3.417    10.182  10.317   2.534    60.770  -0.056   
 257.500   134.003   3.417    10.128  10.851   2.524    60.786  -0.064   
 257.600   185.543   3.414    10.139   8.368   2.567    60.778  -0.072   
 257.700   148.060   3.411    10.095  11.294   2.517    60.791  -0.059   
 257.800   171.487   3.410    10.139   5.836   2.610    60.794  -0.067   
 257.900   223.026   3.409    10.141   5.800   2.611    60.813  -0.075   
 258.000   185.543   3.407    10.301   7.788   2.577    60.818  -0.088   
 258.100   124.632   3.407    10.301   7.129   2.588    60.818  -0.067   
 258.200   138.689   3.408    10.857  11.105   2.520    60.821  -0.061   
 258.300   162.116   3.409    10.857  10.973   2.522    60.842  -0.085   
 258.400   194.914   3.410    10.819   9.823   2.542    60.842  -0.091   
 258.500   138.689   3.413    10.419   8.287   2.568    60.842  -0.077   
 258.600    91.834   3.416    10.271  10.715   2.527    60.863  -0.091   
 258.700   176.172   3.417    10.407  11.825   2.508    60.853  -0.053   
 258.800   176.172   3.417    10.350   9.404   2.549    60.879  -0.064   
 258.900   134.003   3.419    10.344   8.156   2.571    60.893  -0.072   
 259.000   162.116   3.424    10.308   9.610   2.546    60.906  -0.088   
 259.100   134.003   3.431    10.308   6.934   2.591    60.887  -0.091   
 259.200   101.205   3.436    10.451   1.632   2.682    60.903  -0.064   
 259.300   185.543   3.441    10.451   6.477   2.599    60.927  -0.061   
 259.400   176.172   3.438    10.971   7.700   2.578    60.933  -0.061   
 259.500   157.430   3.420    11.219   8.382   2.567    60.941  -0.077   
 259.600   190.228   3.415    11.009  11.736   2.509    60.943  -0.104   
 259.700   157.430   3.412    10.582   4.997   2.625    60.933  -0.069   
 259.800   157.430   3.413    10.433   8.100   2.571    60.957  -0.048   
 259.900   157.430   3.413    10.308   6.305   2.602    60.978  -0.072   
 260.000   171.487   3.412    10.359   7.846   2.576    60.975  -0.053   
 260.100   223.026   3.414    10.261   4.325   2.636    60.994  -0.069   
 260.200   124.632   3.413    10.872   7.339   2.585    60.991  -0.053   
 260.300   190.228   3.412    11.128   9.805   2.542    60.994  -0.064   
 260.400   148.060   3.411    11.357   6.292   2.602    61.002  -0.029   
 260.500   166.801   3.410    11.556   7.388   2.584    61.021  -0.051   
 260.600   152.745   3.411    11.644  10.141   2.537    61.036  -0.035   
 260.700   204.285   3.411    11.539  16.915   2.421    61.026  -0.067   
 260.800   180.858   3.411    11.644   9.853   2.542    61.026  -0.032   
 260.900   162.116   3.413    11.995   4.920   2.626    61.047  -0.053   
 261.000   176.172   3.414    11.157   5.650   2.613    61.047  -0.029   
 261.100   227.712   3.417    10.335   8.574   2.563    61.060  -0.037   
 261.200   194.914   3.418    10.572   7.510   2.582    61.047  -0.059   
 261.300   157.430   3.420    11.134   6.138   2.605    61.066  -0.083   
 261.400   190.228   3.420    11.036  12.912   2.489    61.050  -0.056   
 261.500   204.285   3.422    11.246   9.364   2.550    61.087  -0.099   
 261.600   204.285   3.429    10.785  10.346   2.533    61.060  -0.056   
 261.700   105.891   3.432    10.575   6.361   2.601    61.092  -0.112   
 261.800   213.656   3.430    10.905  14.004   2.471    61.079  -0.101   
 261.900   199.599   3.433    10.702   9.963   2.540    61.100  -0.088   
 262.000   190.228   3.433    10.121   9.300   2.551    61.090  -0.104   
 262.100   129.318   3.432    10.192   7.044   2.590    61.084  -0.096   
 262.200   180.858   3.432    10.430   5.066   2.623    61.124  -0.096   
 262.300   148.060   3.432    10.054   7.987   2.573    61.132  -0.091   
 262.400   190.228   3.434    10.034   7.520   2.581    61.143  -0.069   
 262.500   241.768   3.435    10.071   6.025   2.607    61.159  -0.072   
 262.600   208.970   3.437    10.024   7.140   2.588    61.148  -0.043   
 262.700   185.543   3.439    10.055   6.195   2.604    61.191  -0.061   
 262.800   119.947   3.439    10.201   6.837   2.593    61.202  -0.088   
 262.900   241.768   3.442    10.125   4.765   2.629    61.178  -0.075   
 263.000   213.656   3.443    10.044   6.762   2.594    61.188  -0.045   
 263.100   143.374   3.444    10.210  10.158   2.536    61.220  -0.053   
 263.200   223.026   3.444    10.035   3.862   2.644    61.228  -0.053   
 263.300   162.116   3.444     9.962   9.744   2.543    61.234  -0.051   
 263.400   213.656   3.445     9.990  10.450   2.531    61.228  -0.064   
 263.500   180.858   3.444     9.943  11.214   2.518    61.220  -0.077   
 263.600   138.689   3.444     9.959  10.159   2.536    61.234  -0.061   
 263.700   176.172   3.442     9.943   7.501   2.582    61.263  -0.051   
 263.800   105.891   3.442     9.936   7.472   2.582    61.266  -0.091   
 263.900   138.689   3.442     9.983  12.757   2.492    61.263  -0.048   
 264.000   152.745   3.442     9.994   4.824   2.628    61.266  -0.056   
 264.100   148.060   3.442    10.056   8.080   2.572    61.282  -0.032   
 264.200   190.228   3.442     9.917   4.744   2.629    61.287  -0.051   
 264.300   190.228   3.442    10.018   3.626   2.648    61.279  -0.032   
 264.400   166.801   3.441     9.985   9.285   2.551    61.284  0.008    
 264.500   171.487   3.442    10.021  11.358   2.516    61.311  -0.019   
 264.600   124.632   3.442    10.037   8.543   2.564    61.324  -0.043   
 264.700   194.914   3.442     9.959   5.282   2.620    61.316  0.016    
 264.800   129.318   3.443    10.034   8.402   2.566    61.354  -0.040   
 264.900   157.430   3.441    10.081  10.965   2.522    61.314  -0.040   
 265.000   148.060   3.443    10.194   6.284   2.603    61.338  -0.027   
 265.100   176.172   3.442    10.557   8.531   2.564    61.319  -0.043   
 265.200   227.712   3.443    10.704   5.214   2.621    61.330  -0.027   
 265.300   157.430   3.441    10.443   6.596   2.597    61.316  -0.064   
 265.400   162.116   3.441    10.213  16.422   2.429    61.303  -0.013   
 265.500   176.172   3.440    10.136   8.773   2.560    61.343  -0.024   
 265.600   185.543   3.438    10.417   7.364   2.584    61.359  -0.043   
 265.700   134.003   3.437    10.539   7.894   2.575    61.338  -0.019   
 265.800   199.599   3.435    10.749   9.023   2.556    61.354  -0.011   
 265.900   157.430   3.433    10.692  -0.250   2.714    61.378  -0.037   
 266.000   213.656   3.431    10.782   8.451   2.565    61.346  -0.032   
 266.100   204.285   3.431    10.646  15.021   2.453    61.372  -0.043   
 266.200   166.801   3.431    10.646   7.204   2.587    61.343  -0.037   
 266.300   148.060   3.432    10.376   7.171   2.587    61.367  -0.048   
 266.400   194.914   3.428    10.675  12.364   2.499    61.356  -0.019   
 266.500   148.060   3.429    10.831  13.428   2.480    61.383  -0.061   
 266.600   166.801   3.430    10.739  10.738   2.526    61.380  -0.040   
 266.700   180.858   3.428    10.980   7.530   2.581    61.372  -0.043   
 266.800   180.858   3.429    10.894  10.346   2.533    61.388  -0.064   
 266.900   213.656   3.430    10.359   9.012   2.556    61.383  -0.011   
 267.000   101.205   3.429     9.868  10.330   2.533    61.404  -0.059   
 267.100   138.689   3.429     9.750   4.001   2.642    61.385  -0.027   
 267.200   180.858   3.431     9.790  11.500   2.513    61.404  -0.056   
 267.300   152.745   3.432     9.916   9.604   2.546    61.404  -0.024   
 267.400   180.858   3.432     9.759   6.493   2.599    61.401  -0.011   
 267.500   166.801   3.432     9.703   9.974   2.539    61.441  -0.045   
 267.600   148.060   3.436     9.673  -0.163   2.713    61.412  -0.035   
 267.700   124.632   3.437     9.705   6.880   2.592    61.431  -0.045   
 267.800   204.285   3.438     9.770   8.631   2.562    61.447  -0.083   
