~Version Information
 VERS.                2.0:  CWLS LOG ASCII STANDARD -VERSION 2.0
 WRAP.                 NO:  ONE LINE PER DEPTH STEP
~WELL INFORMATION BLOCK
#MNEM.UNIT       DATA		            DESCRIPTION OF MNEMONIC
#---------    -------------            ------------------------
 STRT.FT  6.300                          :START DEPTH
 STOP.FT  557.000                        :STOP DEPTH
 STEP.FT  0.100                          :STEP    UP_HOLE  
 NULL.    -999.25                        :NULL VALUE
 COMP.                             usgs  :COMPANY
 WELL.   CL1                                                           :WELL
 FLD .                       Candy Lane  :FIELD
 LOC . Lat 38.61717 Long 107.90174       :LOCATION
 CNTY.                         Montrose  :COUNTY
 STAT.                     CO            :STATE
 SRVC.           None                    :SERVICE COMPANY
 DATE.   11/10/2005                      :LOG DATE
 API .                                   :API NUMBER
 LIC .                                   :LICENSE NUMBER
~Curve Information Block
#MNEM.UNIT      API CODE     Curve Description
#---------    -------------  ------------------------
 DEPT     .FT        00 001 00 00          :  1  DEPTH   
 GAMMA    .API-GR    00 310 00 00          :  2                GAMMA
 CALIPER  .INCH      00 280 00 00          :  3              CALIPER
 RES(SG)  .OHM-M     00 220 00 00          :  4              RES(SG)
 POR(DEN) .PERCENT   00 890 00 00          :  5             POR(DEN)
 DEN(CDL) .G/CC      00 350 00 00          :  6             DEN(CDL)
 TEMP     .DEG F     00 660 00 00          :  7                 TEMP
 DEL TEMP .DEG F     00 000 00 00          :  8             DEL TEMP
~Parameter Information Block
#MNEM.UNIT   Information     Description
#---------- ---------------  ------------------------
 FILE.      ORIGINAL           :File Type
 FIID.      9139A              :File Type Identifier
 VERS.      3.58F              :System Version
 SER .      1                  :System Serial Number
 TRUK.      .601567            :Truck Calibration Number
 TOOL.        1239             :Tool Serial Number
 TIME.      1635               :Time    HrHrMinMin
 LAT .                         :Latitude
 LON .                         :Longitude
 LMF .          None           :Log Measured From
 DMF .            GL           :Driller Measured From
 PD  .          None           :Permanent Data
 PDEV.          None           :Elevation Permanent Data
 EKB .M         None           :Elevation Kelly Bushing
 ELEV.DF         550           :Elevation DF
 EGL .M         None           :Elevation Ground Level
 DRDP.           550           :Driller's Depth
 CASD.       8.2               :Casing Diameter
 CASB.            20           :Casing Bottom
 CASX.         steel           :Casing Type
 CAST.         0               :Casing Thickness
 TNOC.          None           :Time Circulation Stopped
 LOGU.       None              :Logging Unit
 RECB.         bscorland       :Recorded By
 OSR1.          None           :Other Services
 OSR2.          None           :Other Services
 OSR3.          None           :Other Services
 BS  .MM       5.875           :Bit Size
 MST .                         :Mean Surface Temperature
 TGRD.        0                :Temperature Gradiant
 MAGN.             0           :Magnetic Declination
 MDEN.      2.71               :Density Matrix
 MATR.       Dolomite          :Neutron Matrix
 DTMT.            54           :Delta T Matrix
 DTFL.                         :Delta T Fluid
 MUDS.               0         :Mud Sample Source
 MRS .           0             :Mud Resistivity
 MTP .           0             :Mud Temperature
 MFRS.                         :Resistivity Mud Filtrate
 MFTP.                         :Temperature Mud Filtrate
 MCRS.         0               :Resistivity Mud Cake
 MCTP.                         :Temperature Mud Cake
 FTYP.             0           :Fluid Type
 FD  .K/M3                     :Fluid Density
 DFV .S                        :Fluid Viscosity
 FPH .                         :Fuild PH
 ELCO.        2500             :Electron Cutoff
~Other Information
#MNEM.UNIT  Information      Description
#---------- ---------------  ------------------------
# -------------------------- 
~A DEPTH  GAMMA     CALIPER RES(SG)   POR(DEN) DEN(CDL) TEMP    DEL TEMP 
# ...
 115.300    91.834   3.454    15.878   0.909   2.694    55.361  -0.018   
 115.400    82.464   3.455    15.667   3.701   2.647    55.365  -0.027   
 115.500    87.149   3.455    16.051   5.530   2.615    55.364  -0.014   
 115.600    82.464   3.456    16.696   0.218   2.706    55.371  -0.018   
 115.700    73.093   3.456    16.757   3.269   2.654    55.373  -0.022   
 115.800   101.205   3.455    16.348  -1.333   2.733    55.367  -0.022   
 115.900    68.407   3.456    15.695  -6.449   2.820    55.375  -0.012   
 116.000   148.060   3.455    15.206   1.720   2.681    55.379  -0.016   
 116.100    96.520   3.454    14.660   6.876   2.592    55.380  -0.012   
 116.200    63.722   3.457    13.417   1.248   2.689    55.382  -0.014   
 116.300   119.947   3.457    13.775   3.112   2.657    55.383  -0.007   
 116.400   124.632   3.456    14.709  -0.985   2.727    55.391  -0.016   
 116.500   115.262   3.455    14.056   0.140   2.708    55.384  -0.018   
 116.600    68.407   3.455    13.260   5.659   2.613    55.391  -0.015   
 116.700    82.464   3.454    13.640   2.264   2.671    55.389  -0.005   
 116.800    73.093   3.454    13.387  -0.271   2.715    55.397  -0.016   
 116.900    91.834   3.454    13.514   1.184   2.690    55.391  -0.014   
 117.000   105.891   3.454    13.408   0.989   2.693    55.397  -0.012   
 117.100   124.632   3.454    13.465   3.465   2.651    55.394  -0.014   
 117.200   148.060   3.453    13.425   1.767   2.680    55.397  -0.008   
 117.300   115.262   3.455    13.410   3.305   2.653    55.398  -0.003   
 117.400    77.778   3.454    13.402   0.097   2.708    55.401  -0.005   
 117.500    73.093   3.456    13.282   2.512   2.667    55.409  -0.007   
 117.600   119.947   3.454    13.068   0.652   2.699    55.404  -0.018   
 117.700    77.778   3.455    13.062   3.724   2.646    55.402  -0.014   
 117.800   115.262   3.454    12.996   2.198   2.672    55.408  -0.005   
 117.900    96.520   3.456    12.634   3.542   2.649    55.410  -0.014   
 118.000    82.464   3.455    12.524   2.893   2.661    55.406  -0.003   
 118.100    91.834   3.456    13.252  -2.543   2.753    55.410  -0.015   
 118.200   115.262   3.455    13.961  -1.072   2.728    55.406  -0.007   
 118.300   110.576   3.455    13.830   5.363   2.618    55.404  -0.014   
 118.400   134.003   3.456    14.075   1.015   2.693    55.415  -0.004   
 118.500   110.576   3.458    14.250  -1.869   2.742    55.410  0.001    
 118.600    87.149   3.457    14.371  -1.466   2.735    55.420  0.001    
 118.700   101.205   3.457    14.592   2.168   2.673    55.421  -0.011   
 118.800    63.722   3.460    14.810  -1.209   2.731    55.416  0.000    
 118.900   101.205   3.463    14.801   0.323   2.704    55.420  -0.011   
 119.000   129.318   3.467    14.386   2.521   2.667    55.413  -0.001   
 119.100    77.778   3.480    14.104   5.564   2.615    55.421  -0.027   
 119.200   110.576   3.483    13.605   6.962   2.591    55.410  -0.004   
 119.300   101.205   3.485    13.300  -1.363   2.733    55.428  -0.033   
 119.400   115.262   3.487    12.963   4.040   2.641    55.415  -0.014   
 119.500   101.205   3.486    12.834  -4.476   2.787    55.419  -0.004   
 119.600   105.891   3.486    13.019   8.171   2.570    55.420  -0.005   
 119.700   138.689   3.487    12.459   4.388   2.635    55.427  -0.014   
 119.800   129.318   3.485    12.161  -2.260   2.749    55.420  -0.004   
 119.900   124.632   3.486    11.293   0.016   2.710    55.424  -0.021   
 120.000   194.914   3.486    10.224   5.388   2.618    55.423  0.004    
 120.100   148.060   3.488    10.224   2.973   2.659    55.438  -0.008   
 120.200   119.947   3.491    10.155   3.634   2.648    55.432  -0.008   
 120.300   148.060   3.490    10.013   3.058   2.658    55.447  -0.010   
 120.400   166.801   3.492    10.058   3.661   2.647    55.432  -0.014   
 120.500   185.543   3.493     9.793   5.771   2.611    55.424  -0.014   
 120.600   115.262   3.497     9.663   4.994   2.625    55.432  -0.012   
 120.700   166.801   3.495     9.608   7.846   2.576    55.434  -0.021   
 120.800   199.599   3.496     9.574   3.250   2.654    55.428  0.000    
 120.900    96.520   3.497     9.671   6.040   2.607    55.443  -0.026   
 121.000   148.060   3.498     9.523   5.498   2.616    55.434  -0.008   
 121.100   119.947   3.498     9.355   8.025   2.573    55.441  0.007    
 121.200   124.632   3.501     9.065   3.450   2.651    55.456  -0.025   
 121.300   152.745   3.500     8.763   0.668   2.699    55.442  -0.030   
 121.400   110.576   3.501     8.898   3.920   2.643    55.438  -0.022   
 121.500   162.116   3.502     9.254   4.092   2.640    55.446  -0.018   
 121.600   119.947   3.500     9.339   8.662   2.562    55.446  -0.022   
 121.700   134.003   3.497     8.691   3.890   2.643    55.449  -0.037   
 121.800   213.656   3.497     8.287   7.520   2.581    55.443  -0.014   
 121.900   190.228   3.497     9.058   5.981   2.608    55.460  -0.026   
 122.000   148.060   3.496     9.570   0.791   2.696    55.449  -0.045   
 122.100   157.430   3.494     9.737   5.086   2.623    55.449  -0.016   
 122.200    96.520   3.494     9.784   3.948   2.642    55.467  -0.022   
 122.300   166.801   3.495     9.520  -1.879   2.742    55.468  -0.019   
 122.400   115.262   3.494     9.525   2.992   2.659    55.468  -0.022   
 122.500   148.060   3.492     9.534   9.622   2.545    55.464  -0.022   
 122.600   143.374   3.494     9.600   2.733   2.663    55.471  -0.011   
 122.700   199.599   3.492     9.579   5.647   2.613    55.480  -0.012   
 122.800   119.947   3.492     9.570  -0.094   2.712    55.473  -0.031   
 122.900   171.487   3.495     9.556  10.639   2.528    55.475  -0.004   
 123.000   171.487   3.496     9.550   9.288   2.551    55.494  -0.016   
 123.100   143.374   3.500     9.292   6.916   2.592    55.483  -0.018   
 123.200   166.801   3.536     9.496   7.285   2.585    55.490  -0.029   
 123.300   157.430   3.542     9.087   1.062   2.692    55.487  -0.033   
 123.400   185.543   3.496     8.698  10.536   2.530    55.486  -0.029   
 123.500   204.285   3.492     7.692   9.833   2.542    55.493  -0.022   
 123.600   124.632   3.494     7.721   6.965   2.591    55.491  -0.044   
 123.700   166.801   3.493     7.353   4.449   2.634    55.486  -0.021   
 123.800   213.656   3.494     8.863  11.342   2.516    55.506  -0.030   
 123.900   199.599   3.496     6.715  14.245   2.466    55.498  -0.029   
 124.000   119.947   3.495     8.945  11.265   2.517    55.499  -0.036   
 124.100   194.914   3.496     9.387   4.790   2.628    55.508  -0.026   
 124.200   105.891   3.495     8.756   3.946   2.643    55.516  -0.016   
 124.300   143.374   3.495     9.193   4.260   2.637    55.519  -0.022   
 124.400   124.632   3.495     9.770   3.047   2.658    55.521  -0.031   
 124.500   138.689   3.498     9.740   3.995   2.642    55.513  -0.016   
 124.600   180.858   3.499     9.798   6.831   2.593    55.530  -0.030   
 124.700    63.722   3.499     9.663   5.399   2.618    55.527  -0.027   
 124.800   152.745   3.501     9.683   9.742   2.543    55.528  -0.027   
 124.900    96.520   3.505     9.662   8.073   2.572    55.528  -0.007   
 125.000   110.576   3.508     9.097   5.811   2.611    55.543  -0.008   
 125.100   101.205   3.512     9.495   2.427   2.669    55.542  -0.019   
 125.200   134.003   3.511    10.283   1.122   2.691    55.535  -0.018   
 125.300   110.576   3.509     8.496   3.234   2.655    55.543  -0.011   
 125.400   138.689   3.511     8.258   5.659   2.613    55.545  -0.010   
 125.500   110.576   3.513     9.056   3.597   2.648    55.546  -0.012   
 125.600   119.947   3.515     8.981   4.979   2.625    55.557  -0.019   
 125.700   143.374   3.516     8.167   5.675   2.613    55.556  -0.023   
 125.800   105.891   3.524     9.570   4.408   2.635    55.556  -0.016   
 125.900   119.947   3.554     9.570  10.049   2.538    55.550  -0.031   
 126.000   166.801   3.630     9.520  10.641   2.528    55.550  -0.021   
 126.100    49.666   3.639     9.538   9.786   2.543    55.554  -0.021   
