~Version Information
 VERS.                2.0:  CWLS LOG ASCII STANDARD -VERSION 2.0
 WRAP.                 NO:  ONE LINE PER DEPTH STEP
~WELL INFORMATION BLOCK
#MNEM.UNIT       DATA		            DESCRIPTION OF MNEMONIC
#---------    -------------            ------------------------
 STRT.FT  6.300                          :START DEPTH
 STOP.FT  557.000                        :STOP DEPTH
 STEP.FT  0.100                          :STEP    UP_HOLE  
 NULL.    -999.25                        :NULL VALUE
 COMP.                             usgs  :COMPANY
 WELL.   CL1                                                           :WELL
 FLD .                       Candy Lane  :FIELD
 LOC . Lat 38.61717 Long 107.90174       :LOCATION
 CNTY.                         Montrose  :COUNTY
 STAT.                     CO            :STATE
 SRVC.           None                    :SERVICE COMPANY
 DATE.   11/10/2005                      :LOG DATE
 API .                                   :API NUMBER
 LIC .                                   :LICENSE NUMBER
~Curve Information Block
#MNEM.UNIT      API CODE     Curve Description
#---------    -------------  ------------------------
 DEPT     .FT        00 001 00 00          :  1  DEPTH   
 GAMMA    .API-GR    00 310 00 00          :  2                GAMMA
 CALIPER  .INCH      00 280 00 00          :  3              CALIPER
 RES(SG)  .OHM-M     00 220 00 00          :  4              RES(SG)
 POR(DEN) .PERCENT   00 890 00 00          :  5             POR(DEN)
 DEN(CDL) .G/CC      00 350 00 00          :  6             DEN(CDL)
 TEMP     .DEG F     00 660 00 00          :  7                 TEMP
 DEL TEMP .DEG F     00 000 00 00          :  8             DEL TEMP
~Parameter Information Block
#MNEM.UNIT   Information     Description
#---------- ---------------  ------------------------
 FILE.      ORIGINAL           :File Type
 FIID.      9139A              :File Type Identifier
 VERS.      3.58F              :System Version
 SER .      1                  :System Serial Number
 TRUK.      .601567            :Truck Calibration Number
 TOOL.        1239             :Tool Serial Number
 TIME.      1635               :Time    HrHrMinMin
 LAT .                         :Latitude
 LON .                         :Longitude
 LMF .          None           :Log Measured From
 DMF .            GL           :Driller Measured From
 PD  .          None           :Permanent Data
 PDEV.          None           :Elevation Permanent Data
 EKB .M         None           :Elevation Kelly Bushing
 ELEV.DF         550           :Elevation DF
 EGL .M         None           :Elevation Ground Level
 DRDP.           550           :Driller's Depth
 CASD.       8.2               :Casing Diameter
 CASB.            20           :Casing Bottom
 CASX.         steel           :Casing Type
 CAST.         0               :Casing Thickness
 TNOC.          None           :Time Circulation Stopped
 LOGU.       None              :Logging Unit
 RECB.         bscorland       :Recorded By
 OSR1.          None           :Other Services
 OSR2.          None           :Other Services
 OSR3.          None           :Other Services
 BS  .MM       5.875           :Bit Size
 MST .                         :Mean Surface Temperature
 TGRD.        0                :Temperature Gradiant
 MAGN.             0           :Magnetic Declination
 MDEN.      2.71               :Density Matrix
 MATR.       Dolomite          :Neutron Matrix
 DTMT.            54           :Delta T Matrix
 DTFL.                         :Delta T Fluid
 MUDS.               0         :Mud Sample Source
 MRS .           0             :Mud Resistivity
 MTP .           0             :Mud Temperature
 MFRS.                         :Resistivity Mud Filtrate
 MFTP.                         :Temperature Mud Filtrate
 MCRS.         0               :Resistivity Mud Cake
 MCTP.                         :Temperature Mud Cake
 FTYP.             0           :Fluid Type
 FD  .K/M3                     :Fluid Density
 DFV .S                        :Fluid Viscosity
 FPH .                         :Fuild PH
 ELCO.        2500             :Electron Cutoff
~Other Information
#MNEM.UNIT  Information      Description
#---------- ---------------  ------------------------
# -------------------------- 
~A DEPTH  GAMMA     CALIPER RES(SG)   POR(DEN) DEN(CDL) TEMP    DEL TEMP 
# ...
 148.000    68.407   3.461    13.985  -3.258   2.766    56.060  -0.034   
 148.100   101.205   3.462    14.051   4.929   2.626    56.064  -0.030   
 148.200   157.430   3.461    13.847   1.341   2.687    56.064  -0.026   
 148.300    73.093   3.461    13.823   4.294   2.637    56.064  -0.048   
 148.400    68.407   3.459    13.920  -4.566   2.788    56.057  -0.023   
 148.500   105.891   3.460    14.142   1.962   2.676    56.073  -0.025   
 148.600   101.205   3.461    14.234  -4.705   2.790    56.079  -0.040   
 148.700    91.834   3.462    13.941   4.811   2.628    56.081  -0.042   
 148.800    82.464   3.464    13.366   1.038   2.692    56.072  -0.042   
 148.900   119.947   3.465    14.121   2.415   2.669    56.086  -0.022   
 149.000   101.205   3.487    14.655   3.069   2.658    56.098  -0.019   
 149.100    87.149   3.502    15.838   1.771   2.680    56.094  -0.041   
 149.200    82.464   3.555    15.609   1.228   2.689    56.090  -0.022   
 149.300    87.149   3.474    15.093  -0.838   2.724    56.105  -0.029   
 149.400    68.407   3.461    15.310   6.748   2.595    56.097  -0.026   
 149.500   157.430   3.463    13.636   1.911   2.677    56.103  -0.023   
 149.600    91.834   3.462    13.103   2.425   2.669    56.121  -0.026   
 149.700   101.205   3.450    13.189   0.995   2.693    56.114  -0.012   
 149.800    77.778   3.448    12.717   6.124   2.605    56.128  -0.016   
 149.900   110.576   3.445    12.685  -1.832   2.741    56.120  -0.029   
 150.000   115.262   3.443    12.809   0.311   2.705    56.113  -0.018   
 150.100    96.520   3.442    13.191  -1.738   2.740    56.131  -0.033   
 150.200   110.576   3.442    13.311   2.681   2.664    56.127  -0.030   
 150.300    68.407   3.442    14.879   5.902   2.609    56.125  -0.027   
 150.400   105.891   3.442    13.408   5.450   2.617    56.129  -0.010   
 150.500    91.834   3.442    13.535  -1.392   2.734    56.144  -0.019   
 150.600    91.834   3.442    13.493   4.737   2.629    56.140  -0.021   
 150.700   129.318   3.442    13.590   1.847   2.678    56.140  -0.031   
 150.800   119.947   3.439    13.661   7.475   2.582    56.136  -0.031   
 150.900    91.834   3.438    14.116  -3.232   2.765    56.142  -0.019   
 151.000    73.093   3.436    15.022   3.435   2.651    56.149  -0.008   
 151.100   115.262   3.434    14.785  -0.963   2.726    56.160  -0.015   
 151.200    91.834   3.433    14.215   2.547   2.666    56.155  -0.030   
 151.300   115.262   3.432    14.146   2.903   2.660    56.157  -0.027   
 151.400   101.205   3.434    14.194   1.225   2.689    56.154  -0.019   
 151.500    82.464   3.434    14.159   0.513   2.701    56.160  -0.027   
 151.600    73.093   3.434    14.291  -4.074   2.780    56.161  -0.021   
 151.700   101.205   3.435    14.714   0.630   2.699    56.168  -0.011   
 151.800    82.464   3.436    15.662  -3.753   2.774    56.173  -0.012   
 151.900   105.891   3.436    15.966  -7.218   2.833    56.168  -0.030   
 152.000    63.722   3.439    16.176  -2.041   2.745    56.168  -0.015   
 152.100   105.891   3.439    16.453  -5.297   2.801    56.170  -0.008   
 152.200   119.947   3.440    16.737  -6.871   2.827    56.187  -0.015   
 152.300    82.464   3.442    16.728   0.334   2.704    56.181  -0.012   
 152.400    91.834   3.444    16.639  -0.157   2.713    56.179  -0.012   
 152.500    87.149   3.443    16.621  -0.546   2.719    56.188  -0.018   
 152.600    77.778   3.443    16.820  -3.880   2.776    56.188  -0.030   
 152.700   101.205   3.443    16.876  -8.405   2.854    56.184  -0.030   
 152.800   134.003   3.444    17.130  -1.405   2.734    56.180  -0.015   
 152.900    63.722   3.444    17.230  -0.571   2.720    56.198  -0.031   
 153.000    96.520   3.443    17.302  -3.539   2.771    56.186  -0.025   
 153.100    96.520   3.445    17.568  -0.867   2.725    56.195  -0.016   
 153.200    73.093   3.444    17.722  -2.611   2.755    56.196  -0.022   
 153.300   110.576   3.445    17.490   1.496   2.684    56.191  -0.029   
 153.400    82.464   3.445    17.071   4.248   2.637    56.201  -0.021   
 153.500    77.778   3.445    17.752  -1.710   2.739    56.206  -0.004   
 153.600   138.689   3.444    17.782  -1.305   2.732    56.214  -0.007   
 153.700   110.576   3.444    17.365  -2.298   2.749    56.210  -0.022   
 153.800    87.149   3.445    17.313  -2.642   2.755    56.213  -0.011   
 153.900   124.632   3.444    17.732  -2.100   2.746    56.217  -0.012   
 154.000    82.464   3.443    18.167  -1.460   2.735    56.220  -0.030   
 154.100   143.374   3.445    17.608   0.679   2.698    56.213  -0.021   
 154.200    96.520   3.446    17.004  -5.338   2.801    56.213  -0.016   
 154.300   110.576   3.445    16.850  -1.813   2.741    56.229  -0.023   
 154.400   148.060   3.445    16.326   0.194   2.707    56.227  -0.034   
 154.500   101.205   3.445    16.217  -4.902   2.794    56.218  -0.033   
 154.600    68.407   3.443    15.583  -0.114   2.712    56.217  -0.012   
 154.700    96.520   3.445    14.969  -0.787   2.723    56.235  -0.030   
 154.800    96.520   3.444    14.919   1.307   2.688    56.228  -0.022   
 154.900    96.520   3.444    14.990  -2.597   2.754    56.232  -0.019   
 155.000   115.262   3.445    15.560  -7.546   2.839    56.243  -0.022   
 155.100   119.947   3.444    16.799   0.386   2.703    56.233  -0.008   
 155.200   110.576   3.446    17.089   1.719   2.681    56.246  -0.012   
 155.300   152.745   3.445    17.407   5.499   2.616    56.250  -0.003   
 155.400    82.464   3.447    17.226  -3.845   2.776    56.253  -0.019   
 155.500    91.834   3.447    16.755   0.525   2.701    56.250  -0.016   
 155.600   124.632   3.445    16.412  -6.420   2.820    56.247  -0.012   
 155.700    96.520   3.446    16.855   3.613   2.648    56.258  -0.025   
 155.800    96.520   3.445    17.099   1.039   2.692    56.254  -0.008   
 155.900   162.116   3.443    16.878  -2.035   2.745    56.262  -0.012   
 156.000    73.093   3.443    16.515  -3.603   2.772    56.255  -0.027   
 156.100   101.205   3.444    16.690  -3.239   2.765    56.254  -0.010   
 156.200   101.205   3.441    16.716  -5.609   2.806    56.262  -0.027   
 156.300   129.318   3.443    15.408  -0.327   2.716    56.255  -0.008   
 156.400   115.262   3.443    14.744   1.534   2.684    56.269  -0.026   
 156.500   101.205   3.443    14.680  -1.676   2.739    56.264  -0.018   
 156.600    82.464   3.442    15.409  -0.581   2.720    56.270  0.003    
 156.700    91.834   3.443    14.730  -1.908   2.743    56.279  -0.011   
 156.800    63.722   3.444    14.995  -2.948   2.760    56.270  -0.018   
 156.900    44.980   3.442    15.260  -1.124   2.729    56.268  0.003    
 157.000    63.722   3.442    14.764  -3.703   2.773    56.281  -0.018   
 157.100   101.205   3.442    14.807   3.441   2.651    56.272  -0.014   
 157.200    87.149   3.444    14.406  -3.197   2.765    56.283  -0.010   
 157.300    91.834   3.442    14.442   0.901   2.695    56.277  -0.004   
 157.400   119.947   3.443    14.378  -1.219   2.731    56.290  -0.007   
 157.500    54.351   3.441    14.670   1.535   2.684    56.288  -0.025   
 157.600    59.036   3.442    15.387  -3.377   2.768    56.276  -0.001   
 157.700    73.093   3.443    15.650  -0.886   2.725    56.281  -0.014   
 157.800    91.834   3.443    15.803  -2.154   2.747    56.285  -0.018   
 157.900    96.520   3.444    15.459  -1.267   2.732    56.279  -0.012   
 158.000   110.576   3.443    16.283  -3.163   2.764    56.290  0.003    
 158.100    82.464   3.443    15.573  -0.204   2.713    56.296  -0.023   
 158.200    91.834   3.443    14.622  -1.845   2.742    56.287  -0.023   
 158.300   115.262   3.444    15.157  -0.480   2.718    56.294  -0.008   
 158.400   129.318   3.444    15.712  -0.885   2.725    56.295  -0.016   
 158.500    77.778   3.446    15.185   2.310   2.670    56.301  -0.048   
 158.600    91.834   3.444    14.381  -3.818   2.775    56.283  -0.016   
 158.700    77.778   3.444    14.160   0.696   2.698    56.299  -0.026   
 158.800    63.722   3.444    13.707  -3.350   2.767    56.296  -0.029   
