~Version Information
 VERS.                2.0:  CWLS LOG ASCII STANDARD -VERSION 2.0
 WRAP.                 NO:  ONE LINE PER DEPTH STEP
~WELL INFORMATION BLOCK
#MNEM.UNIT       DATA		            DESCRIPTION OF MNEMONIC
#---------    -------------            ------------------------
 STRT.FT  12.700                         :START DEPTH
 STOP.FT  552.200                        :STOP DEPTH
 STEP.FT  0.100                          :STEP    UP_HOLE  
 NULL.    -999.25                        :NULL VALUE
 COMP.                             usgs  :COMPANY
 WELL.   CL1                                                           :WELL
 FLD .                       Candy Lane  :FIELD
 LOC .  Lat 38.61717 Long 107.90174      :LOCATION
 CNTY.                         Montrose  :COUNTY
 STAT.                     CO            :STATE
 SRVC.           None                    :SERVICE COMPANY
 DATE.   11/10/2005                      :LOG DATE
 API .                                   :API NUMBER
 LIC .                                   :LICENSE NUMBER
~Curve Information Block
#MNEM.UNIT      API CODE     Curve Description
#---------    -------------  ------------------------
 DEPT     .FT        00 001 00 00          :  1  DEPTH   
 GAMMA    .CPS       00 310 00 00          :  2                GAMMA
 CALIPER  .INCH      00 280 00 00          :  3              CALIPER
~Parameter Information Block
#MNEM.UNIT   Information     Description
#---------- ---------------  ------------------------
 FILE.      ORIGINAL           :File Type
 FIID.      9074C              :File Type Identifier
 VERS.      3.58F              :System Version
 SER .      1                  :System Serial Number
 TRUK.      .601567            :Truck Calibration Number
 TOOL.         877             :Tool Serial Number
 TIME.      1245               :Time    HrHrMinMin
 LAT .                         :Latitude
 LON .                         :Longitude
 LMF .          None           :Log Measured From
 DMF .            GL           :Driller Measured From
 PD  .          None           :Permanent Data
 PDEV.          None           :Elevation Permanent Data
 EKB .M         None           :Elevation Kelly Bushing
 ELEV.DF         550           :Elevation DF
 EGL .M         None           :Elevation Ground Level
 DRDP.           550           :Driller's Depth
 CASD.       8.2               :Casing Diameter
 CASB.            20           :Casing Bottom
 CASX.         steel           :Casing Type
 CAST.         0               :Casing Thickness
 TNOC.          None           :Time Circulation Stopped
 LOGU.       None              :Logging Unit
 RECB.         bscorland       :Recorded By
 OSR1.          None           :Other Services
 OSR2.          None           :Other Services
 OSR3.          None           :Other Services
 BS  .MM       5.875           :Bit Size
 MST .                         :Mean Surface Temperature
 TGRD.        0                :Temperature Gradiant
 MAGN.             0           :Magnetic Declination
 MDEN.      2.71               :Density Matrix
 MATR.       Dolomite          :Neutron Matrix
 DTMT.            54           :Delta T Matrix
 DTFL.                         :Delta T Fluid
 MUDS.               0         :Mud Sample Source
 MRS .           0             :Mud Resistivity
 MTP .           0             :Mud Temperature
 MFRS.                         :Resistivity Mud Filtrate
 MFTP.                         :Temperature Mud Filtrate
 MCRS.         0               :Resistivity Mud Cake
 MCTP.                         :Temperature Mud Cake
 FTYP.             0           :Fluid Type
 FD  .K/M3                     :Fluid Density
 DFV .S                        :Fluid Viscosity
 FPH .                         :Fuild PH
 ELCO.        2500             :Electron Cutoff
~Other Information
#MNEM.UNIT  Information      Description
#---------- ---------------  ------------------------
# -------------------------- 
~A DEPTH  GAMMA     CALIPER 
# ...
 316.300   190.000   5.074  
 316.400   195.000   5.076  
 316.500   225.000   5.082  
 316.600   225.000   5.076  
 316.700   195.000   5.066  
 316.800   180.000   5.061  
 316.900   170.000   5.064  
 317.000   185.000   5.064  
 317.100   166.667   5.058  
 317.200   200.000   5.052  
 317.300   225.000   5.082  
 317.400   200.000   5.074  
 317.500   190.000   5.074  
 317.600   125.000   5.082  
 317.700   170.000   5.078  
 317.800   200.000   5.090  
 317.900   190.000   5.092  
 318.000   200.000   5.097  
 318.100   215.000   5.109  
 318.200   215.000   5.117  
 318.300   245.000   5.121  
 318.400   230.000   5.115  
 318.500   193.333   5.107  
 318.600   270.000   5.111  
 318.700   200.000   5.099  
 318.800   155.000   5.101  
 318.900   190.000   5.088  
 319.000   180.000   5.069  
 319.100   180.000   5.060  
 319.200   150.000   5.062  
 319.300   150.000   5.064  
 319.400   175.000   5.068  
 319.500   205.000   5.074  
 319.600   245.000   5.078  
 319.700   220.000   5.080  
 319.800   225.000   5.066  
 319.900   140.000   5.058  
 320.000   160.000   5.076  
 320.100   165.000   5.076  
 320.200   206.667   5.058  
 320.300   250.000   5.072  
 320.400   175.000   5.094  
 320.500   170.000   5.078  
 320.600   190.000   5.083  
 320.700   230.000   5.095  
 320.800   210.000   5.082  
 320.900   185.000   5.084  
 321.000   183.333   5.082  
 321.100   165.000   5.080  
 321.200   210.000   5.078  
 321.300   180.000   5.070  
 321.400   235.000   5.067  
 321.500   155.000   5.082  
 321.600   183.333   5.082  
 321.700   195.000   5.082  
 321.800   265.000   5.078  
 321.900   240.000   5.074  
 322.000   160.000   5.061  
 322.100   160.000   5.062  
 322.200   185.000   5.072  
 322.300   190.000   5.076  
 322.400   156.667   5.078  
 322.500   170.000   5.062  
 322.600   185.000   5.066  
 322.700   145.000   5.064  
 322.800   145.000   5.050  
 322.900   135.000   5.066  
 323.000   170.000   5.072  
 323.100   205.000   5.074  
 323.200   190.000   5.070  
 323.300   195.000   5.076  
 323.400   190.000   5.076  
 323.500   245.000   5.076  
 323.600   185.000   5.070  
 323.700   160.000   5.074  
 323.800   205.000   5.079  
 323.900   210.000   5.076  
 324.000   186.667   5.054  
 324.100   165.000   5.072  
 324.200   190.000   5.088  
 324.300   235.000   5.090  
 324.400   215.000   5.088  
 324.500   225.000   5.086  
 324.600   275.000   5.084  
 324.700   233.333   5.084  
 324.800   205.000   5.086  
 324.900   220.000   5.086  
 325.000   215.000   5.084  
 325.100   230.000   5.082  
 325.200   170.000   5.074  
 325.300   185.000   5.084  
 325.400   180.000   5.090  
 325.500   225.000   5.084  
 325.600   235.000   5.086  
 325.700   226.667   5.086  
 325.800   255.000   5.076  
 325.900   205.000   5.084  
 326.000   240.000   5.078  
 326.100   255.000   5.086  
 326.200   195.000   5.078  
 326.300   280.000   5.074  
 326.400   330.000   5.074  
 326.500   235.000   5.074  
 326.600   240.000   5.078  
 326.700   225.000   5.072  
 326.800   215.000   5.070  
 326.900   195.000   5.056  
 327.000   215.000   5.064  
 327.100   235.000   5.084  
 327.200   173.333   5.090  
 327.300   180.000   5.054  
 327.400   195.000   5.044  
 327.500   220.000   5.084  
 327.600   165.000   5.062  
 327.700   235.000   5.062  
 327.800   160.000   5.068  
 327.900   183.333   5.084  
 328.000   165.000   5.074  
 328.100   195.000   5.072  
 328.200   160.000   5.062  
 328.300   180.000   5.058  
 328.400   200.000   5.080  
 328.500   240.000   5.074  
 328.600   235.000   5.070  
 328.700   145.000   5.084  
 328.800   180.000   5.092  
 328.900   205.000   5.094  
 329.000   190.000   5.094  
 329.100   230.000   5.066  
 329.200   205.000   5.097  
 329.300   185.000   5.111  
 329.400   245.000   5.137  
 329.500   235.000   5.147  
 329.600   176.667   5.204  
 329.700   170.000   5.210  
 329.800   240.000   5.117  
 329.900   215.000   5.101  
 330.000   185.000   5.094  
 330.100   205.000   5.083  
 330.200   215.000   5.074  
 330.300   173.333   5.070  
 330.400   190.000   5.066  
 330.500   205.000   5.080  
 330.600   200.000   5.072  
 330.700   180.000   5.075  
 330.800   160.000   5.070  
 330.900   185.000   5.076  
 331.000   230.000   5.080  
 331.100   215.000   5.080  
 331.200   250.000   5.082  
 331.300   195.000   5.084  
 331.400   210.000   5.069  
 331.500   260.000   5.074  
 331.600   130.000   5.070  
 331.700   245.000   5.074  
 331.800   180.000   5.064  
 331.900   250.000   5.072  
 332.000   205.000   5.058  
 332.100   255.000   5.074  
 332.200   230.000   5.074  
 332.300   210.000   5.076  
 332.400   250.000   5.076  
 332.500   275.000   5.078  
 332.600   195.000   5.078  
 332.700   216.667   5.056  
 332.800   155.000   5.086  
 332.900   195.000   5.068  
 333.000   285.000   5.082  
 333.100   175.000   5.086  
 333.200   190.000   5.090  
 333.300   306.667   5.087  
 333.400   255.000   5.088  
 333.500   295.000   5.088  
 333.600   235.000   5.090  
 333.700   260.000   5.094  
 333.800   315.000   5.097  
 333.900   180.000   5.104  
 334.000   250.000   5.109  
 334.100   243.333   5.068  
 334.200   240.000   5.060  
 334.300   265.000   5.074  
 334.400   195.000   5.080  
 334.500   160.000   5.062  
 334.600   205.000   5.056  
 334.700   205.000   5.068  
 334.800   230.000   5.084  
 334.900   245.000   5.121  
 335.000   240.000   5.092  
 335.100   210.000   5.092  
 335.200   210.000   5.086  
 335.300   290.000   5.086  
 335.400   250.000   5.080  
 335.500   255.000   5.075  
 335.600   200.000   5.076  
 335.700   135.000   5.078  
 335.800   220.000   5.082  
 335.900   230.000   5.088  
 336.000   280.000   5.084  
 336.100   175.000   5.072  
 336.200   210.000   5.074  
 336.300   245.000   5.066  
 336.400   210.000   5.076  
 336.500   233.333   5.080  
 336.600   205.000   5.082  
 336.700   215.000   5.082  
 336.800   210.000   5.080  
 336.900   215.000   5.074  
 337.000   235.000   5.070  
 337.100   270.000   5.060  
 337.200   200.000   5.060  
 337.300   236.667   5.060  
 337.400   230.000   5.062  
 337.500   245.000   5.078  
 337.600   250.000   5.078  
 337.700   270.000   5.069  
 337.800   215.000   5.078  
 337.900   245.000   5.074  
 338.000   185.000   5.078  
 338.100   200.000   5.078  
 338.200   250.000   5.078  
 338.300   190.000   5.078  
 338.400   195.000   5.078  
 338.500   220.000   5.078  
 338.600   235.000   5.074  
 338.700   250.000   5.076  
 338.800   190.000   5.064  
 338.900   203.333   5.080  
 339.000   200.000   5.082  
 339.100   200.000   5.084  
 339.200   260.000   5.086  
 339.300   245.000   5.086  
 339.400   215.000   5.084  
 339.500   230.000   5.090  
 339.600   176.667   5.095  
 339.700   160.000   5.090  
 339.800   195.000   5.090  
 339.900   180.000   5.076  
 340.000   190.000   5.076  
 340.100   240.000   5.072  
 340.200   270.000   5.070  
 340.300   175.000   5.070  
 340.400   206.667   5.070  
 340.500   240.000   5.072  
 340.600   190.000   5.072  
 340.700   210.000   5.074  
 340.800   225.000   5.066  
 340.900   200.000   5.088  
 341.000   230.000   5.086  
 341.100   145.000   5.090  
 341.200   255.000   5.097  
 341.300   193.333   5.090  
 341.400   260.000   5.084  
 341.500   260.000   5.094  
 341.600   180.000   5.088  
 341.700   265.000   5.084  
 341.800   190.000   5.086  
 341.900   185.000   5.090  
 342.000   300.000   5.086  
 342.100   230.000   5.078  
 342.200   210.000   5.078  
 342.300   180.000   5.082  
 342.400   210.000   5.082  
 342.500   185.000   5.080  
 342.600   200.000   5.080  
 342.700   173.333   5.082  
 342.800   160.000   5.080  
 342.900   260.000   5.082  
 343.000   220.000   5.082  
 343.100   245.000   5.082  
 343.200   235.000   5.075  
 343.300   190.000   5.076  
 343.400   235.000   5.076  
 343.500   165.000   5.078  
 343.600   235.000   5.076  
 343.700   213.333   5.080  
 343.800   250.000   5.082  
