~Version Information
 VERS.                2.0:  CWLS LOG ASCII STANDARD -VERSION 2.0
 WRAP.                 NO:  ONE LINE PER DEPTH STEP
~WELL INFORMATION BLOCK
#MNEM.UNIT       DATA		            DESCRIPTION OF MNEMONIC
#---------    -------------            ------------------------
 STRT.FT  12.700                         :START DEPTH
 STOP.FT  552.200                        :STOP DEPTH
 STEP.FT  0.100                          :STEP    UP_HOLE  
 NULL.    -999.25                        :NULL VALUE
 COMP.                             usgs  :COMPANY
 WELL.   CL1                                                           :WELL
 FLD .                       Candy Lane  :FIELD
 LOC .  Lat 38.61717 Long 107.90174      :LOCATION
 CNTY.                         Montrose  :COUNTY
 STAT.                     CO            :STATE
 SRVC.           None                    :SERVICE COMPANY
 DATE.   11/10/2005                      :LOG DATE
 API .                                   :API NUMBER
 LIC .                                   :LICENSE NUMBER
~Curve Information Block
#MNEM.UNIT      API CODE     Curve Description
#---------    -------------  ------------------------
 DEPT     .FT        00 001 00 00          :  1  DEPTH   
 GAMMA    .CPS       00 310 00 00          :  2                GAMMA
 CALIPER  .INCH      00 280 00 00          :  3              CALIPER
~Parameter Information Block
#MNEM.UNIT   Information     Description
#---------- ---------------  ------------------------
 FILE.      ORIGINAL           :File Type
 FIID.      9074C              :File Type Identifier
 VERS.      3.58F              :System Version
 SER .      1                  :System Serial Number
 TRUK.      .601567            :Truck Calibration Number
 TOOL.         877             :Tool Serial Number
 TIME.      1245               :Time    HrHrMinMin
 LAT .                         :Latitude
 LON .                         :Longitude
 LMF .          None           :Log Measured From
 DMF .            GL           :Driller Measured From
 PD  .          None           :Permanent Data
 PDEV.          None           :Elevation Permanent Data
 EKB .M         None           :Elevation Kelly Bushing
 ELEV.DF         550           :Elevation DF
 EGL .M         None           :Elevation Ground Level
 DRDP.           550           :Driller's Depth
 CASD.       8.2               :Casing Diameter
 CASB.            20           :Casing Bottom
 CASX.         steel           :Casing Type
 CAST.         0               :Casing Thickness
 TNOC.          None           :Time Circulation Stopped
 LOGU.       None              :Logging Unit
 RECB.         bscorland       :Recorded By
 OSR1.          None           :Other Services
 OSR2.          None           :Other Services
 OSR3.          None           :Other Services
 BS  .MM       5.875           :Bit Size
 MST .                         :Mean Surface Temperature
 TGRD.        0                :Temperature Gradiant
 MAGN.             0           :Magnetic Declination
 MDEN.      2.71               :Density Matrix
 MATR.       Dolomite          :Neutron Matrix
 DTMT.            54           :Delta T Matrix
 DTFL.                         :Delta T Fluid
 MUDS.               0         :Mud Sample Source
 MRS .           0             :Mud Resistivity
 MTP .           0             :Mud Temperature
 MFRS.                         :Resistivity Mud Filtrate
 MFTP.                         :Temperature Mud Filtrate
 MCRS.         0               :Resistivity Mud Cake
 MCTP.                         :Temperature Mud Cake
 FTYP.             0           :Fluid Type
 FD  .K/M3                     :Fluid Density
 DFV .S                        :Fluid Viscosity
 FPH .                         :Fuild PH
 ELCO.        2500             :Electron Cutoff
~Other Information
#MNEM.UNIT  Information      Description
#---------- ---------------  ------------------------
# -------------------------- 
~A DEPTH  GAMMA     CALIPER 
# ...
 454.300   105.000   5.086  
 454.400    90.000   5.086  
 454.500   155.000   5.084  
 454.600   185.000   5.080  
 454.700   155.000   5.082  
 454.800   140.000   5.074  
 454.900   140.000   5.080  
 455.000   180.000   5.082  
 455.100   125.000   5.082  
 455.200   170.000   5.082  
 455.300   105.000   5.080  
 455.400   185.000   5.080  
 455.500   165.000   5.082  
 455.600   150.000   5.078  
 455.700   165.000   5.082  
 455.800   165.000   5.082  
 455.900   163.333   5.086  
 456.000   140.000   5.084  
 456.100   200.000   5.088  
 456.200   200.000   5.090  
 456.300   155.000   5.084  
 456.400    90.000   5.078  
 456.500   135.000   5.076  
 456.600   165.000   5.074  
 456.700   170.000   5.070  
 456.800   110.000   5.078  
 456.900   200.000   5.076  
 457.000   145.000   5.078  
 457.100   120.000   5.078  
 457.200   150.000   5.070  
 457.300   115.000   5.070  
 457.400   185.000   5.074  
 457.500   120.000   5.074  
 457.600   165.000   5.070  
 457.700   140.000   5.074  
 457.800   165.000   5.072  
 457.900   110.000   5.070  
 458.000   150.000   5.072  
 458.100   165.000   5.074  
 458.200   140.000   5.080  
 458.300   140.000   5.082  
 458.400   180.000   5.080  
 458.500   180.000   5.080  
 458.600   135.000   5.082  
 458.700   175.000   5.082  
 458.800   180.000   5.080  
 458.900   170.000   5.086  
 459.000   150.000   5.082  
 459.100   150.000   5.080  
 459.200   150.000   5.082  
 459.300   160.000   5.082  
 459.400   135.000   5.080  
 459.500   170.000   5.082  
 459.600   150.000   5.083  
 459.700   110.000   5.084  
 459.800   165.000   5.084  
 459.900    95.000   5.086  
 460.000   155.000   5.084  
 460.100   195.000   5.084  
 460.200   185.000   5.082  
 460.300   185.000   5.080  
 460.400   145.000   5.078  
 460.500   193.333   5.072  
 460.600   155.000   5.078  
 460.700   115.000   5.078  
 460.800   200.000   5.082  
 460.900   170.000   5.082  
 461.000   120.000   5.086  
 461.100   165.000   5.084  
 461.200   180.000   5.080  
 461.300   180.000   5.086  
 461.400   105.000   5.082  
 461.500   130.000   5.088  
 461.600   170.000   5.082  
 461.700   180.000   5.082  
 461.800   210.000   5.066  
 461.900   155.000   5.070  
 462.000   230.000   5.068  
 462.100   180.000   5.080  
 462.200   115.000   5.072  
 462.300   135.000   5.080  
 462.400   150.000   5.074  
 462.500   165.000   5.082  
 462.600   153.333   5.083  
 462.700   160.000   5.088  
 462.800   125.000   5.084  
 462.900   130.000   5.080  
 463.000   120.000   5.080  
 463.100   155.000   5.082  
 463.200   185.000   5.080  
 463.300   145.000   5.082  
 463.400   155.000   5.082  
 463.500   135.000   5.082  
 463.600   133.333   5.078  
 463.700   190.000   5.078  
 463.800   160.000   5.082  
 463.900   190.000   5.092  
 464.000   165.000   5.095  
 464.100   140.000   5.086  
 464.200   140.000   5.084  
 464.300   110.000   5.082  
 464.400   150.000   5.082  
 464.500   180.000   5.078  
 464.600   140.000   5.074  
 464.700   165.000   5.078  
 464.800   136.667   5.074  
 464.900   125.000   5.082  
 465.000   195.000   5.084  
 465.100   180.000   5.086  
 465.200   180.000   5.086  
 465.300   210.000   5.074  
 465.400   170.000   5.076  
 465.500   170.000   5.083  
 465.600   136.667   5.090  
 465.700   180.000   5.086  
 465.800   175.000   5.078  
 465.900   170.000   5.082  
 466.000   125.000   5.070  
 466.100   195.000   5.076  
 466.200   155.000   5.084  
 466.300   155.000   5.060  
 466.400   160.000   5.078  
 466.500   110.000   5.082  
 466.600   193.333   5.084  
 466.700   105.000   5.080  
 466.800   105.000   5.072  
 466.900   185.000   5.072  
 467.000   150.000   5.076  
 467.100   145.000   5.082  
 467.200   135.000   5.083  
 467.300   110.000   5.082  
 467.400   165.000   5.084  
 467.500   210.000   5.086  
 467.600   130.000   5.086  
 467.700   166.667   5.072  
 467.800   155.000   5.082  
 467.900   135.000   5.074  
 468.000   170.000   5.082  
 468.100   160.000   5.086  
 468.200   150.000   5.082  
 468.300   115.000   5.082  
 468.400   200.000   5.082  
 468.500   166.667   5.079  
 468.600   135.000   5.076  
 468.700   135.000   5.082  
 468.800   105.000   5.076  
 468.900   140.000   5.082  
 469.000   115.000   5.082  
 469.100   175.000   5.086  
 469.200   140.000   5.086  
 469.300   185.000   5.086  
 469.400   113.333   5.082  
 469.500   125.000   5.072  
 469.600   130.000   5.078  
 469.700   135.000   5.082  
 469.800   120.000   5.090  
 469.900   135.000   5.092  
 470.000   180.000   5.090  
 470.100   180.000   5.090  
 470.200   165.000   5.092  
 470.300   170.000   5.088  
 470.400   195.000   5.084  
 470.500   160.000   5.084  
 470.600   140.000   5.082  
 470.700   135.000   5.084  
 470.800   180.000   5.080  
 470.900   170.000   5.078  
 471.000   145.000   5.082  
 471.100   155.000   5.080  
 471.200   115.000   5.072  
 471.300   175.000   5.072  
 471.400   180.000   5.076  
 471.500   115.000   5.074  
 471.600   100.000   5.080  
 471.700   220.000   5.082  
 471.800   120.000   5.088  
 471.900   115.000   5.080  
 472.000   135.000   5.080  
 472.100   155.000   5.082  
 472.200   130.000   5.078  
 472.300   143.333   5.080  
 472.400   140.000   5.084  
 472.500   150.000   5.082  
 472.600   180.000   5.086  
 472.700   165.000   5.084  
 472.800   140.000   5.078  
 472.900   185.000   5.078  
 473.000   100.000   5.078  
 473.100   120.000   5.082  
 473.200   130.000   5.084  
 473.300   100.000   5.083  
 473.400   105.000   5.082  
 473.500   136.667   5.080  
 473.600   115.000   5.076  
 473.700   175.000   5.070  
 473.800   160.000   5.072  
 473.900   215.000   5.074  
 474.000   125.000   5.078  
 474.100   170.000   5.076  
 474.200   200.000   5.076  
 474.300   116.667   5.078  
 474.400   165.000   5.076  
 474.500   155.000   5.078  
 474.600   165.000   5.078  
 474.700   130.000   5.078  
 474.800   140.000   5.080  
 474.900   135.000   5.078  
 475.000   140.000   5.074  
 475.100   200.000   5.078  
 475.200    90.000   5.082  
 475.300   190.000   5.080  
 475.400   205.000   5.078  
 475.500   180.000   5.074  
 475.600   150.000   5.076  
 475.700   155.000   5.078  
 475.800   140.000   5.080  
 475.900   185.000   5.078  
 476.000   150.000   5.074  
 476.100   115.000   5.076  
 476.200   165.000   5.072  
 476.300   143.333   5.074  
 476.400   195.000   5.074  
 476.500   110.000   5.070  
 476.600   165.000   5.072  
 476.700   175.000   5.068  
 476.800   170.000   5.070  
 476.900   175.000   5.072  
 477.000   135.000   5.068  
 477.100    90.000   5.068  
 477.200   160.000   5.074  
 477.300   186.667   5.075  
 477.400   170.000   5.078  
 477.500   145.000   5.076  
 477.600   140.000   5.078  
 477.700   165.000   5.078  
 477.800   185.000   5.078  
 477.900   140.000   5.080  
 478.000   165.000   5.082  
 478.100   100.000   5.082  
 478.200   145.000   5.080  
 478.300   145.000   5.078  
 478.400   165.000   5.080  
 478.500   135.000   5.084  
 478.600   135.000   5.086  
 478.700   225.000   5.082  
 478.800   185.000   5.076  
 478.900   200.000   5.074  
 479.000   180.000   5.084  
 479.100   160.000   5.086  
 479.200   155.000   5.082  
 479.300   163.333   5.082  
 479.400   210.000   5.082  
 479.500   185.000   5.084  
 479.600   125.000   5.086  
 479.700   165.000   5.086  
 479.800   155.000   5.088  
 479.900   120.000   5.090  
 480.000   165.000   5.088  
 480.100   125.000   5.086  
 480.200   145.000   5.087  
 480.300   186.667   5.086  
 480.400   195.000   5.086  
 480.500   155.000   5.086  
 480.600   175.000   5.090  
 480.700   190.000   5.090  
 480.800   195.000   5.088  
 480.900   165.000   5.086  
 481.000   105.000   5.084  
 481.100   175.000   5.086  
 481.200   230.000   5.084  
 481.300   153.333   5.086  
 481.400   190.000   5.088  
 481.500   215.000   5.086  
 481.600   135.000   5.078  
 481.700   180.000   5.078  
 481.800   140.000   5.088  
