~Version Information
 VERS.                2.0:  CWLS LOG ASCII STANDARD -VERSION 2.0
 WRAP.                 NO:  ONE LINE PER DEPTH STEP
~WELL INFORMATION BLOCK
#MNEM.UNIT       DATA		            DESCRIPTION OF MNEMONIC
#---------    -------------            ------------------------
 STRT.FT  6.300                          :START DEPTH
 STOP.FT  557.000                        :STOP DEPTH
 STEP.FT  0.100                          :STEP    UP_HOLE  
 NULL.    -999.25                        :NULL VALUE
 COMP.                             usgs  :COMPANY
 WELL.   CL1                                                           :WELL
 FLD .                       Candy Lane  :FIELD
 LOC . Lat 38.61717 Long 107.90174       :LOCATION
 CNTY.                         Montrose  :COUNTY
 STAT.                     CO            :STATE
 SRVC.           None                    :SERVICE COMPANY
 DATE.   11/10/2005                      :LOG DATE
 API .                                   :API NUMBER
 LIC .                                   :LICENSE NUMBER
~Curve Information Block
#MNEM.UNIT      API CODE     Curve Description
#---------    -------------  ------------------------
 DEPT     .FT        00 001 00 00          :  1  DEPTH   
 GAMMA    .API-GR    00 310 00 00          :  2                GAMMA
 CALIPER  .INCH      00 280 00 00          :  3              CALIPER
 RES(SG)  .OHM-M     00 220 00 00          :  4              RES(SG)
 POR(DEN) .PERCENT   00 890 00 00          :  5             POR(DEN)
 DEN(CDL) .G/CC      00 350 00 00          :  6             DEN(CDL)
 TEMP     .DEG F     00 660 00 00          :  7                 TEMP
 DEL TEMP .DEG F     00 000 00 00          :  8             DEL TEMP
~Parameter Information Block
#MNEM.UNIT   Information     Description
#---------- ---------------  ------------------------
 FILE.      ORIGINAL           :File Type
 FIID.      9139A              :File Type Identifier
 VERS.      3.58F              :System Version
 SER .      1                  :System Serial Number
 TRUK.      .601567            :Truck Calibration Number
 TOOL.        1239             :Tool Serial Number
 TIME.      1635               :Time    HrHrMinMin
 LAT .                         :Latitude
 LON .                         :Longitude
 LMF .          None           :Log Measured From
 DMF .            GL           :Driller Measured From
 PD  .          None           :Permanent Data
 PDEV.          None           :Elevation Permanent Data
 EKB .M         None           :Elevation Kelly Bushing
 ELEV.DF         550           :Elevation DF
 EGL .M         None           :Elevation Ground Level
 DRDP.           550           :Driller's Depth
 CASD.       8.2               :Casing Diameter
 CASB.            20           :Casing Bottom
 CASX.         steel           :Casing Type
 CAST.         0               :Casing Thickness
 TNOC.          None           :Time Circulation Stopped
 LOGU.       None              :Logging Unit
 RECB.         bscorland       :Recorded By
 OSR1.          None           :Other Services
 OSR2.          None           :Other Services
 OSR3.          None           :Other Services
 BS  .MM       5.875           :Bit Size
 MST .                         :Mean Surface Temperature
 TGRD.        0                :Temperature Gradiant
 MAGN.             0           :Magnetic Declination
 MDEN.      2.71               :Density Matrix
 MATR.       Dolomite          :Neutron Matrix
 DTMT.            54           :Delta T Matrix
 DTFL.                         :Delta T Fluid
 MUDS.               0         :Mud Sample Source
 MRS .           0             :Mud Resistivity
 MTP .           0             :Mud Temperature
 MFRS.                         :Resistivity Mud Filtrate
 MFTP.                         :Temperature Mud Filtrate
 MCRS.         0               :Resistivity Mud Cake
 MCTP.                         :Temperature Mud Cake
 FTYP.             0           :Fluid Type
 FD  .K/M3                     :Fluid Density
 DFV .S                        :Fluid Viscosity
 FPH .                         :Fuild PH
 ELCO.        2500             :Electron Cutoff
~Other Information
#MNEM.UNIT  Information      Description
#---------- ---------------  ------------------------
# -------------------------- 
~A DEPTH  GAMMA     CALIPER RES(SG)   POR(DEN) DEN(CDL) TEMP    DEL TEMP 
# ...
 191.600    96.520   3.441    12.170   4.190   2.638    57.360  0.013    
 191.700   124.632   3.441    12.064  -0.842   2.724    57.389  -0.019   
 191.800   129.318   3.440    12.080  -3.106   2.763    57.392  -0.029   
 191.900   105.891   3.438    12.030  -2.162   2.747    57.357  -0.051   
 192.000   124.632   3.438    12.345  -0.247   2.714    57.363  -0.029   
 192.100   152.745   3.437    12.685   5.550   2.615    57.384  -0.005   
 192.200   166.801   3.436    12.877   4.025   2.641    57.395  -0.037   
 192.300    91.834   3.436    12.749   9.721   2.544    57.376  -0.027   
 192.400   124.632   3.437    12.128   2.542   2.667    57.384  -0.003   
 192.500    68.407   3.436    12.328  -0.945   2.726    57.392  -0.061   
 192.600   101.205   3.437    11.974   7.671   2.579    57.376  -0.016   
 192.700   110.576   3.439    11.997   4.033   2.641    57.411  -0.024   
 192.800   101.205   3.440    12.047   0.016   2.710    57.387  -0.035   
 192.900   152.745   3.441    12.007   5.199   2.621    57.413  -0.016   
 193.000   101.205   3.442    12.253   9.885   2.541    57.413  -0.032   
 193.100   129.318   3.440    13.148   1.029   2.692    57.400  -0.019   
 193.200    82.464   3.440    13.010   2.160   2.673    57.413  -0.029   
 193.300   152.745   3.441    12.419   9.642   2.545    57.411  -0.053   
 193.400   148.060   3.441    11.953   0.952   2.694    57.395  0.011    
 193.500    96.520   3.441    11.995  -0.470   2.718    57.437  -0.008   
 193.600   134.003   3.440    12.037   3.934   2.643    57.427  -0.051   
 193.700    77.778   3.441    11.974   4.870   2.627    57.411  0.003    
 193.800   124.632   3.440    12.106   3.108   2.657    57.448  -0.013   
 193.900    96.520   3.440    12.197  -2.463   2.752    57.429  -0.040   
 194.000    73.093   3.439    12.287   5.967   2.608    57.432  -0.029   
 194.100   110.576   3.440    12.215   3.938   2.643    57.432  -0.016   
 194.200   143.374   3.440    12.233  -3.697   2.773    57.440  -0.019   
 194.300   124.632   3.440    12.206  -0.595   2.720    57.448  -0.021   
 194.400   105.891   3.440    12.164   0.937   2.694    57.427  -0.024   
 194.500   101.205   3.440    12.269   1.320   2.687    57.435  -0.027   
 194.600   143.374   3.440    12.436   1.080   2.692    57.461  -0.005   
 194.700   138.689   3.440    13.617  -0.077   2.711    57.445  -0.064   
 194.800   166.801   3.439    13.896   0.718   2.698    57.443  -0.011   
 194.900   134.003   3.439    13.651  -0.745   2.723    57.472  -0.013   
 195.000    77.778   3.440    13.879   2.936   2.660    57.461  -0.019   
 195.100   166.801   3.439    13.387   1.787   2.679    57.456  -0.027   
 195.200   124.632   3.437    12.917  -3.493   2.770    57.467  -0.045   
 195.300   143.374   3.437    13.553   0.066   2.709    57.448  -0.072   
 195.400   134.003   3.434    13.506   0.659   2.699    57.459  -0.040   
 195.500    96.520   3.432    13.869  -0.805   2.724    57.488  -0.053   
 195.600    91.834   3.430    13.795   3.666   2.647    57.451  -0.016   
 195.700   124.632   3.430    14.187   4.303   2.636    57.506  -0.056   
 195.800   148.060   3.430    14.414   1.796   2.679    57.483  -0.069   
 195.900   115.262   3.429    14.205   7.489   2.582    57.475  -0.051   
 196.000   124.632   3.429    13.679   0.466   2.702    57.475  -0.045   
 196.100   124.632   3.427    13.090  -1.607   2.737    57.493  -0.048   
 196.200    82.464   3.427    13.180   2.411   2.669    57.493  -0.003   
 196.300   105.891   3.427    13.155   3.923   2.643    57.530  -0.013   
 196.400   115.262   3.427    13.258   3.244   2.655    57.528  -0.021   
 196.500   110.576   3.426    13.559   1.944   2.677    57.504  -0.016   
 196.600   129.318   3.425    15.157   1.953   2.677    57.522  -0.008   
 196.700   101.205   3.426    15.463   1.871   2.678    57.538  -0.003   
 196.800   105.891   3.429    15.575   1.216   2.689    57.544  0.005    
 196.900    77.778   3.428    16.362   2.764   2.663    57.525  -0.008   
 197.000    87.149   3.427    16.696  -3.517   2.770    57.538  0.003    
 197.100   162.116   3.430    16.664   3.970   2.642    57.541  -0.011   
 197.200    87.149   3.428    16.177   5.120   2.622    57.533  -0.005   
 197.300    82.464   3.429    14.669  -6.291   2.818    57.541  -0.008   
 197.400    35.609   3.427    14.314   4.307   2.636    57.525  -0.008   
 197.500   101.205   3.426    14.371   1.379   2.686    57.538  0.003    
 197.600    82.464   3.425    14.610  -4.399   2.785    57.546  -0.011   
 197.700    63.722   3.425    14.357  -7.854   2.844    57.546  -0.021   
 197.800   110.576   3.425    14.674   3.818   2.645    57.520  0.000    
 197.900    91.834   3.425    14.638  -4.151   2.781    57.546  -0.043   
 198.000    87.149   3.425    15.268  -1.851   2.742    57.538  -0.013   
 198.100   115.262   3.426    15.540   1.206   2.689    57.544  -0.005   
 198.200   115.262   3.426    14.992  -0.085   2.711    57.546  -0.040   
 198.300    96.520   3.425    14.992   0.004   2.710    57.533  -0.016   
 198.400    82.464   3.425    15.284  -2.911   2.760    57.546  -0.029   
 198.500    73.093   3.424    15.800  -1.465   2.735    57.544  0.008    
 198.600    77.778   3.424    16.569  -2.308   2.749    57.557  -0.032   
 198.700    73.093   3.425    16.835  -1.024   2.728    57.541  -0.024   
 198.800   134.003   3.425    16.863   1.063   2.692    57.546  -0.016   
 198.900    96.520   3.426    16.823  -0.067   2.711    57.581  -0.016   
 199.000   101.205   3.423    16.769  -6.398   2.819    57.557  -0.027   
 199.100    91.834   3.422    16.841  -2.847   2.759    57.552  -0.003   
 199.200    77.778   3.422    16.964  -1.719   2.739    57.573  -0.008   
 199.300   115.262   3.421    16.844  -2.863   2.759    57.562  -0.008   
 199.400   124.632   3.423    16.678   1.045   2.692    57.573  -0.051   
 199.500   110.576   3.423    16.169  -1.569   2.737    57.549  -0.016   
 199.600   119.947   3.423    15.655   4.373   2.635    57.573  -0.027   
 199.700    82.464   3.423    16.080   1.707   2.681    57.570  0.000    
 199.800   105.891   3.424    15.794   4.098   2.640    57.597  -0.027   
 199.900   129.318   3.425    15.149   0.095   2.708    57.573  -0.016   
 200.000    82.464   3.425    14.969  -3.242   2.765    57.578  -0.043   
 200.100   115.262   3.426    14.983  -6.568   2.822    57.576  -0.035   
 200.200   129.318   3.427    15.251   2.357   2.670    57.570  -0.069   
 200.300   134.003   3.428    16.695   6.548   2.598    57.581  -0.016   
 200.400   101.205   3.429    17.190   5.855   2.610    57.600  -0.032   
 200.500   129.318   3.428    18.256  -2.871   2.759    57.589  -0.032   
 200.600   148.060   3.425    18.857   0.791   2.696    57.597  -0.032   
 200.700   119.947   3.420    18.936   1.609   2.682    57.597  -0.053   
 200.800   101.205   3.414    18.811   0.090   2.708    57.600  -0.064   
 200.900    87.149   3.412    18.861   3.451   2.651    57.594  -0.051   
 201.000   119.947   3.410    17.782  -3.477   2.769    57.618  -0.067   
 201.100    96.520   3.409    15.835   3.247   2.654    57.605  -0.035   
 201.200   110.576   3.406    14.969  -0.068   2.711    57.650  -0.072   
 201.300   115.262   3.403    14.969   2.010   2.676    57.616  -0.096   
 201.400   148.060   3.401    14.969   2.708   2.664    57.621  -0.099   
 201.500   110.576   3.399    14.983  -4.834   2.793    57.629  -0.091   
 201.600   110.576   3.397    14.969  -1.454   2.735    57.629  -0.085   
 201.700   115.262   3.396    14.990   0.992   2.693    57.653  -0.075   
 201.800    91.834   3.399    15.141  -6.167   2.815    57.658  -0.099   
 201.900   143.374   3.398    15.970   2.265   2.671    57.669  -0.112   
 202.000    63.722   3.400    16.598  -0.930   2.726    57.672  -0.093   
 202.100    73.093   3.400    16.838   3.161   2.656    57.685  -0.067   
 202.200   110.576   3.403    16.946   2.119   2.674    57.688  -0.053   
 202.300   166.801   3.405    16.865   2.825   2.662    57.717  -0.059   
 202.400    96.520   3.409    16.607   2.031   2.675    57.728  -0.053   
