~Version Information
 VERS.                2.0:  CWLS LOG ASCII STANDARD -VERSION 2.0
 WRAP.                 NO:  ONE LINE PER DEPTH STEP
~WELL INFORMATION BLOCK
#MNEM.UNIT       DATA		            DESCRIPTION OF MNEMONIC
#---------    -------------            ------------------------
 STRT.FT  12.700                         :START DEPTH
 STOP.FT  552.200                        :STOP DEPTH
 STEP.FT  0.100                          :STEP    UP_HOLE  
 NULL.    -999.25                        :NULL VALUE
 COMP.                             usgs  :COMPANY
 WELL.   CL1                                                           :WELL
 FLD .                       Candy Lane  :FIELD
 LOC .  Lat 38.61717 Long 107.90174      :LOCATION
 CNTY.                         Montrose  :COUNTY
 STAT.                     CO            :STATE
 SRVC.           None                    :SERVICE COMPANY
 DATE.   11/10/2005                      :LOG DATE
 API .                                   :API NUMBER
 LIC .                                   :LICENSE NUMBER
~Curve Information Block
#MNEM.UNIT      API CODE     Curve Description
#---------    -------------  ------------------------
 DEPT     .FT        00 001 00 00          :  1  DEPTH   
 GAMMA    .CPS       00 310 00 00          :  2                GAMMA
 CALIPER  .INCH      00 280 00 00          :  3              CALIPER
~Parameter Information Block
#MNEM.UNIT   Information     Description
#---------- ---------------  ------------------------
 FILE.      ORIGINAL           :File Type
 FIID.      9074C              :File Type Identifier
 VERS.      3.58F              :System Version
 SER .      1                  :System Serial Number
 TRUK.      .601567            :Truck Calibration Number
 TOOL.         877             :Tool Serial Number
 TIME.      1245               :Time    HrHrMinMin
 LAT .                         :Latitude
 LON .                         :Longitude
 LMF .          None           :Log Measured From
 DMF .            GL           :Driller Measured From
 PD  .          None           :Permanent Data
 PDEV.          None           :Elevation Permanent Data
 EKB .M         None           :Elevation Kelly Bushing
 ELEV.DF         550           :Elevation DF
 EGL .M         None           :Elevation Ground Level
 DRDP.           550           :Driller's Depth
 CASD.       8.2               :Casing Diameter
 CASB.            20           :Casing Bottom
 CASX.         steel           :Casing Type
 CAST.         0               :Casing Thickness
 TNOC.          None           :Time Circulation Stopped
 LOGU.       None              :Logging Unit
 RECB.         bscorland       :Recorded By
 OSR1.          None           :Other Services
 OSR2.          None           :Other Services
 OSR3.          None           :Other Services
 BS  .MM       5.875           :Bit Size
 MST .                         :Mean Surface Temperature
 TGRD.        0                :Temperature Gradiant
 MAGN.             0           :Magnetic Declination
 MDEN.      2.71               :Density Matrix
 MATR.       Dolomite          :Neutron Matrix
 DTMT.            54           :Delta T Matrix
 DTFL.                         :Delta T Fluid
 MUDS.               0         :Mud Sample Source
 MRS .           0             :Mud Resistivity
 MTP .           0             :Mud Temperature
 MFRS.                         :Resistivity Mud Filtrate
 MFTP.                         :Temperature Mud Filtrate
 MCRS.         0               :Resistivity Mud Cake
 MCTP.                         :Temperature Mud Cake
 FTYP.             0           :Fluid Type
 FD  .K/M3                     :Fluid Density
 DFV .S                        :Fluid Viscosity
 FPH .                         :Fuild PH
 ELCO.        2500             :Electron Cutoff
~Other Information
#MNEM.UNIT  Information      Description
#---------- ---------------  ------------------------
# -------------------------- 
~A DEPTH  GAMMA     CALIPER 
# ...
 426.700   110.000   5.095  
 426.800   140.000   5.113  
 426.900    70.000   5.109  
 427.000   105.000   5.097  
 427.100   103.333   5.074  
 427.200    70.000   5.067  
 427.300    70.000   5.070  
 427.400    65.000   5.066  
 427.500    70.000   5.068  
 427.600    85.000   5.070  
 427.700    95.000   5.066  
 427.800    75.000   5.062  
 427.900   115.000   5.064  
 428.000    65.000   5.065  
 428.100   115.000   5.060  
 428.200   140.000   5.064  
 428.300    90.000   5.072  
 428.400   130.000   5.080  
 428.500   145.000   5.088  
 428.600   140.000   5.090  
 428.700   125.000   5.088  
 428.800   125.000   5.090  
 428.900   165.000   5.088  
 429.000   150.000   5.090  
 429.100   140.000   5.088  
 429.200   160.000   5.088  
 429.300   155.000   5.090  
 429.400   145.000   5.094  
 429.500   165.000   5.092  
 429.600   185.000   5.094  
 429.700   205.000   5.094  
 429.800   153.333   5.088  
 429.900   145.000   5.092  
 430.000   170.000   5.094  
 430.100   225.000   5.092  
 430.200   160.000   5.094  
 430.300   165.000   5.094  
 430.400   160.000   5.094  
 430.500   170.000   5.096  
 430.600   140.000   5.099  
 430.700   166.667   5.097  
 430.800   120.000   5.099  
 430.900   190.000   5.101  
 431.000   205.000   5.115  
 431.100   185.000   5.095  
 431.200   135.000   5.090  
 431.300   160.000   5.092  
 431.400   235.000   5.094  
 431.500   195.000   5.094  
 431.600   160.000   5.095  
 431.700   140.000   5.082  
 431.800   183.333   5.086  
 431.900   130.000   5.092  
 432.000   130.000   5.092  
 432.100   145.000   5.099  
 432.200   165.000   5.092  
 432.300   150.000   5.111  
 432.400   150.000   5.121  
 432.500   133.333   5.092  
 432.600   175.000   5.097  
 432.700   230.000   5.109  
 432.800   150.000   5.099  
 432.900   140.000   5.094  
 433.000   130.000   5.095  
 433.100   190.000   5.099  
 433.200   200.000   5.092  
 433.300   176.667   5.094  
 433.400   175.000   5.078  
 433.500   195.000   5.095  
 433.600   210.000   5.103  
 433.700   170.000   5.097  
 433.800   120.000   5.099  
 433.900   235.000   5.099  
 434.000   205.000   5.101  
 434.100   205.000   5.103  
 434.200   210.000   5.105  
 434.300   176.667   5.103  
 434.400   160.000   5.105  
 434.500   165.000   5.105  
 434.600   135.000   5.097  
 434.700   190.000   5.094  
 434.800   235.000   5.095  
 434.900   200.000   5.097  
 435.000   110.000   5.090  
 435.100   160.000   5.097  
 435.200   105.000   5.099  
 435.300   135.000   5.097  
 435.400   155.000   5.097  
 435.500   175.000   5.099  
 435.600   145.000   5.101  
 435.700   150.000   5.099  
 435.800   150.000   5.100  
 435.900   185.000   5.101  
 436.000   165.000   5.101  
 436.100   210.000   5.105  
 436.200   135.000   5.123  
 436.300   155.000   5.109  
 436.400   165.000   5.101  
 436.500   130.000   5.103  
 436.600   205.000   5.107  
 436.700   190.000   5.109  
 436.800   135.000   5.109  
 436.900   200.000   5.099  
 437.000   195.000   5.097  
 437.100   165.000   5.099  
 437.200   195.000   5.097  
 437.300   175.000   5.097  
 437.400   150.000   5.097  
 437.500   125.000   5.099  
 437.600   165.000   5.097  
 437.700   173.333   5.094  
 437.800   210.000   5.097  
 437.900   105.000   5.095  
 438.000   220.000   5.097  
 438.100   160.000   5.094  
 438.200   145.000   5.097  
 438.300   120.000   5.097  
 438.400   190.000   5.095  
 438.500   135.000   5.088  
 438.600   155.000   5.090  
 438.700   170.000   5.099  
 438.800   140.000   5.099  
 438.900   175.000   5.097  
 439.000   155.000   5.097  
 439.100   180.000   5.097  
 439.200   186.667   5.104  
 439.300   190.000   5.103  
 439.400   210.000   5.101  
 439.500   215.000   5.117  
 439.600   185.000   5.113  
 439.700   135.000   5.113  
 439.800   180.000   5.105  
 439.900   125.000   5.103  
 440.000   170.000   5.104  
 440.100   170.000   5.107  
 440.200   206.667   5.109  
 440.300   130.000   5.109  
 440.400   165.000   5.084  
 440.500   155.000   5.097  
 440.600   135.000   5.101  
 440.700   165.000   5.099  
 440.800   170.000   5.095  
 440.900   175.000   5.097  
 441.000   143.333   5.097  
 441.100   205.000   5.097  
 441.200   245.000   5.095  
 441.300   215.000   5.094  
 441.400   100.000   5.092  
 441.500   180.000   5.086  
 441.600   185.000   5.086  
 441.700   130.000   5.086  
 441.800   140.000   5.083  
 441.900   135.000   5.088  
 442.000   200.000   5.086  
 442.100   155.000   5.086  
 442.200   165.000   5.086  
 442.300   165.000   5.086  
 442.400   180.000   5.086  
 442.500   165.000   5.086  
 442.600   163.333   5.084  
 442.700   150.000   5.086  
 442.800   160.000   5.090  
 442.900   165.000   5.086  
 443.000   175.000   5.086  
 443.100   150.000   5.084  
 443.200   140.000   5.086  
 443.300   160.000   5.090  
 443.400   155.000   5.095  
 443.500   125.000   5.095  
 443.600   170.000   5.094  
 443.700   146.667   5.086  
 443.800   190.000   5.088  
 443.900   205.000   5.088  
 444.000   145.000   5.086  
 444.100   175.000   5.088  
 444.200   140.000   5.088  
 444.300   110.000   5.086  
 444.400   186.667   5.086  
 444.500   135.000   5.086  
 444.600   180.000   5.088  
 444.700   195.000   5.086  
 444.800   155.000   5.084  
 444.900   140.000   5.086  
 445.000   225.000   5.084  
 445.100   150.000   5.083  
 445.200   193.333   5.084  
 445.300   140.000   5.086  
 445.400   155.000   5.082  
 445.500   200.000   5.082  
 445.600   175.000   5.084  
 445.700   120.000   5.086  
 445.800   190.000   5.086  
 445.900   190.000   5.088  
 446.000   205.000   5.090  
 446.100   115.000   5.086  
 446.200   160.000   5.086  
 446.300   165.000   5.088  
 446.400   225.000   5.090  
 446.500   175.000   5.086  
 446.600   163.333   5.090  
 446.700   160.000   5.090  
 446.800   195.000   5.094  
 446.900   175.000   5.094  
 447.000   155.000   5.094  
 447.100   130.000   5.086  
 447.200   160.000   5.084  
 447.300   170.000   5.084  
 447.400   150.000   5.086  
 447.500   165.000   5.082  
 447.600   195.000   5.084  
 447.700   165.000   5.082  
 447.800   185.000   5.082  
 447.900   155.000   5.080  
 448.000   225.000   5.082  
 448.100   135.000   5.078  
 448.200   173.333   5.078  
 448.300   205.000   5.078  
 448.400   115.000   5.078  
 448.500   195.000   5.080  
 448.600   155.000   5.078  
 448.700   155.000   5.080  
 448.800   125.000   5.078  
 448.900   145.000   5.078  
 449.000   195.000   5.082  
 449.100   205.000   5.080  
 449.200   180.000   5.078  
 449.300   193.333   5.078  
 449.400   185.000   5.078  
 449.500   170.000   5.080  
 449.600   195.000   5.082  
 449.700   195.000   5.082  
 449.800   215.000   5.082  
 449.900   185.000   5.082  
 450.000   220.000   5.086  
 450.100   290.000   5.086  
 450.200   186.667   5.082  
 450.300   245.000   5.084  
 450.400   235.000   5.082  
 450.500   315.000   5.082  
 450.600   315.000   5.082  
 450.700   230.000   5.086  
 450.800   285.000   5.080  
 450.900   286.667   5.082  
 451.000   295.000   5.084  
 451.100   235.000   5.084  
 451.200   235.000   5.078  
 451.300   255.000   5.084  
 451.400   285.000   5.094  
 451.500   255.000   5.084  
 451.600   255.000   5.121  
 451.700   255.000   5.158  
 451.800   395.000   5.156  
 451.900   310.000   5.187  
 452.000   280.000   5.156  
 452.100   355.000   5.186  
 452.200   370.000   5.253  
 452.300   295.000   5.355  
 452.400   335.000   5.351  
 452.500   275.000   5.255  
 452.600   190.000   5.249  
 452.700   235.000   5.107  
 452.800   235.000   5.064  
 452.900   226.667   5.068  
 453.000   220.000   5.070  
 453.100   140.000   5.070  
 453.200   145.000   5.070  
 453.300   190.000   5.074  
 453.400   165.000   5.072  
 453.500   155.000   5.068  
 453.600   160.000   5.066  
 453.700   143.333   5.070  
 453.800   175.000   5.078  
 453.900   190.000   5.080  
 454.000   115.000   5.080  
 454.100   135.000   5.082  
 454.200   105.000   5.082  
