~Version Information
 VERS.                2.0:  CWLS LOG ASCII STANDARD -VERSION 2.0
 WRAP.                 NO:  ONE LINE PER DEPTH STEP
~WELL INFORMATION BLOCK
#MNEM.UNIT       DATA		            DESCRIPTION OF MNEMONIC
#---------    -------------            ------------------------
 STRT.FT  6.300                          :START DEPTH
 STOP.FT  557.000                        :STOP DEPTH
 STEP.FT  0.100                          :STEP    UP_HOLE  
 NULL.    -999.25                        :NULL VALUE
 COMP.                             usgs  :COMPANY
 WELL.   CL1                                                           :WELL
 FLD .                       Candy Lane  :FIELD
 LOC . Lat 38.61717 Long 107.90174       :LOCATION
 CNTY.                         Montrose  :COUNTY
 STAT.                     CO            :STATE
 SRVC.           None                    :SERVICE COMPANY
 DATE.   11/10/2005                      :LOG DATE
 API .                                   :API NUMBER
 LIC .                                   :LICENSE NUMBER
~Curve Information Block
#MNEM.UNIT      API CODE     Curve Description
#---------    -------------  ------------------------
 DEPT     .FT        00 001 00 00          :  1  DEPTH   
 GAMMA    .API-GR    00 310 00 00          :  2                GAMMA
 CALIPER  .INCH      00 280 00 00          :  3              CALIPER
 RES(SG)  .OHM-M     00 220 00 00          :  4              RES(SG)
 POR(DEN) .PERCENT   00 890 00 00          :  5             POR(DEN)
 DEN(CDL) .G/CC      00 350 00 00          :  6             DEN(CDL)
 TEMP     .DEG F     00 660 00 00          :  7                 TEMP
 DEL TEMP .DEG F     00 000 00 00          :  8             DEL TEMP
~Parameter Information Block
#MNEM.UNIT   Information     Description
#---------- ---------------  ------------------------
 FILE.      ORIGINAL           :File Type
 FIID.      9139A              :File Type Identifier
 VERS.      3.58F              :System Version
 SER .      1                  :System Serial Number
 TRUK.      .601567            :Truck Calibration Number
 TOOL.        1239             :Tool Serial Number
 TIME.      1635               :Time    HrHrMinMin
 LAT .                         :Latitude
 LON .                         :Longitude
 LMF .          None           :Log Measured From
 DMF .            GL           :Driller Measured From
 PD  .          None           :Permanent Data
 PDEV.          None           :Elevation Permanent Data
 EKB .M         None           :Elevation Kelly Bushing
 ELEV.DF         550           :Elevation DF
 EGL .M         None           :Elevation Ground Level
 DRDP.           550           :Driller's Depth
 CASD.       8.2               :Casing Diameter
 CASB.            20           :Casing Bottom
 CASX.         steel           :Casing Type
 CAST.         0               :Casing Thickness
 TNOC.          None           :Time Circulation Stopped
 LOGU.       None              :Logging Unit
 RECB.         bscorland       :Recorded By
 OSR1.          None           :Other Services
 OSR2.          None           :Other Services
 OSR3.          None           :Other Services
 BS  .MM       5.875           :Bit Size
 MST .                         :Mean Surface Temperature
 TGRD.        0                :Temperature Gradiant
 MAGN.             0           :Magnetic Declination
 MDEN.      2.71               :Density Matrix
 MATR.       Dolomite          :Neutron Matrix
 DTMT.            54           :Delta T Matrix
 DTFL.                         :Delta T Fluid
 MUDS.               0         :Mud Sample Source
 MRS .           0             :Mud Resistivity
 MTP .           0             :Mud Temperature
 MFRS.                         :Resistivity Mud Filtrate
 MFTP.                         :Temperature Mud Filtrate
 MCRS.         0               :Resistivity Mud Cake
 MCTP.                         :Temperature Mud Cake
 FTYP.             0           :Fluid Type
 FD  .K/M3                     :Fluid Density
 DFV .S                        :Fluid Viscosity
 FPH .                         :Fuild PH
 ELCO.        2500             :Electron Cutoff
~Other Information
#MNEM.UNIT  Information      Description
#---------- ---------------  ------------------------
# -------------------------- 
~A DEPTH  GAMMA     CALIPER RES(SG)   POR(DEN) DEN(CDL) TEMP    DEL TEMP 
# ...
 300.600   134.003   3.406    11.482   5.115   2.623    63.240  0.000    
 300.700   180.858   3.409    12.062   2.914   2.660    63.250  0.016    
 300.800   129.318   3.407    11.515   3.424   2.651    63.250  -0.011   
 300.900   148.060   3.407    12.095   4.392   2.635    63.240  -0.005   
 301.000   148.060   3.396    15.002   1.060   2.692    63.242  -0.016   
 301.100    91.834   3.384    13.862   0.240   2.706    63.240  -0.043   
 301.200    96.520   3.382    13.130   8.244   2.569    63.240  -0.029   
 301.300    91.834   3.382    15.697   4.598   2.631    63.237  -0.051   
 301.400   124.632   3.380    16.286   6.791   2.594    63.240  -0.027   
 301.500    87.149   3.378    14.046   4.307   2.636    63.258  -0.035   
 301.600   115.262   3.382    14.818   2.948   2.660    63.250  -0.064   
 301.700   124.632   3.394    12.454   6.957   2.591    63.234  -0.069   
 301.800   115.262   3.406    10.292   4.412   2.635    63.250  -0.075   
 301.900   138.689   3.407    11.336   2.638   2.665    63.248  -0.059   
 302.000   124.632   3.405    17.117  -1.178   2.730    63.256  -0.059   
 302.100   138.689   3.405    16.780  -4.242   2.783    63.282  -0.080   
 302.200   148.060   3.407    14.147  11.334   2.516    63.266  -0.045   
 302.300   162.116   3.411    11.693   0.783   2.697    63.290  -0.075   
 302.400   176.172   3.412    10.659  11.210   2.518    63.285  -0.056   
 302.500   157.430   3.409    10.934   4.869   2.627    63.285  -0.061   
 302.600   129.318   3.403    11.569   6.186   2.604    63.298  -0.067   
 302.700   176.172   3.401    12.882   5.541   2.615    63.320  -0.051   
 302.800   138.689   3.396    14.012   7.559   2.581    63.322  -0.088   
 302.900   152.745   3.397    12.610   8.164   2.570    63.314  -0.045   
 303.000    96.520   3.405    13.329   8.905   2.558    63.341  -0.019   
 303.100   101.205   3.407    13.820   4.901   2.626    63.346  -0.056   
 303.200   129.318   3.412    12.924   0.689   2.698    63.336  -0.035   
 303.300   138.689   3.414    12.248   4.328   2.636    63.360  -0.075   
 303.400   180.858   3.416    12.923   7.448   2.583    63.341  -0.048   
 303.500   138.689   3.416    13.536   4.176   2.639    63.360  -0.013   
 303.600   105.891   3.417    14.271   7.827   2.576    63.386  -0.051   
 303.700   119.947   3.416    15.403   3.169   2.656    63.373  -0.045   
 303.800   119.947   3.419    16.033   5.959   2.608    63.402  -0.064   
 303.900   148.060   3.417    16.351   8.036   2.573    63.386  -0.085   
 304.000    91.834   3.415    14.587   0.994   2.693    63.365  -0.069   
 304.100    96.520   3.416    11.462   1.028   2.692    63.392  -0.069   
 304.200   101.205   3.414    10.853   6.526   2.598    63.394  -0.067   
 304.300   110.576   3.414    10.973   1.397   2.686    63.416  -0.075   
 304.400   129.318   3.414    11.159   7.001   2.590    63.408  -0.101   
 304.500   119.947   3.413    11.680   3.926   2.643    63.400  -0.067   
 304.600   115.262   3.411    11.721   8.728   2.561    63.424  -0.059   
 304.700   124.632   3.410    11.926   6.514   2.599    63.448  -0.048   
 304.800    59.036   3.409    11.953   6.789   2.594    63.450  -0.043   
 304.900   180.858   3.410    11.980   3.328   2.653    63.450  -0.048   
 305.000   162.116   3.411    12.445   5.950   2.608    63.461  -0.075   
 305.100   124.632   3.413    12.195   4.466   2.634    63.464  -0.045   
 305.200   176.172   3.412    12.152   5.014   2.624    63.482  -0.056   
 305.300   124.632   3.409    12.248   7.274   2.586    63.482  -0.027   
 305.400   113.700   3.410    13.058   9.239   2.552    63.501  -0.064   
 305.500   110.576   3.403    14.101   6.585   2.597    63.490  -0.067   
 305.600    98.082   3.391    14.450   5.892   2.609    63.506  -0.083   
 305.700   129.318   3.391    14.835  12.496   2.496    63.498  -0.088   
 305.800   151.183   3.395    14.818   9.488   2.548    63.493  -0.067   
 305.900   143.374   3.404    14.700   7.172   2.587    63.509  -0.056   
 306.000   157.430   3.400    15.060   3.848   2.644    63.538  -0.037   
 306.100   152.745   3.398    14.974   8.701   2.561    63.527  -0.049   
 306.200    91.834   3.396    14.984   2.065   2.675    63.538  -0.077   
 306.300   124.632   3.393    15.673   4.176   2.639    63.527  -0.045   
 306.400   171.487   3.387    12.714   2.584   2.666    63.554  -0.059   
 306.500    82.464   3.380    11.802   4.528   2.633    63.573  -0.026   
 306.600   105.891   3.372    11.650   6.331   2.602    63.581  -0.048   
 306.700   134.003   3.361    11.570   2.569   2.666    63.581  -0.043   
 306.800    82.464   3.361    11.722   6.789   2.594    63.575  -0.043   
 306.900   162.116   3.363    12.043   9.056   2.555    63.594  -0.069   
 307.000   148.060   3.364    13.118   8.424   2.566    63.565  -0.074   
 307.100   119.947   3.363    13.297   6.744   2.595    63.587  -0.048   
 307.200   171.487   3.361    11.346   4.382   2.635    63.605  -0.072   
 307.300   129.318   3.360    11.115   8.250   2.569    63.599  -0.024   
 307.400   176.172   3.357    11.031  10.623   2.528    63.631  -0.065   
 307.500   148.060   3.358    11.290   7.944   2.574    63.607  -0.048   
 307.600   232.397   3.363    11.694   3.235   2.655    63.629  -0.088   
 307.700   143.374   3.352    12.053   2.673   2.664    63.618  -0.051   
 307.800   124.632   3.388    12.091  12.775   2.492    63.637  -0.053   
 307.900    96.520   3.416    12.505  10.838   2.525    63.634  -0.005   
 308.000   157.430   3.428    13.455   5.280   2.620    63.661  -0.040   
 308.100   115.262   3.411    14.783  11.918   2.506    63.653  -0.040   
 308.200   119.947   3.409    16.411   5.249   2.620    63.671  -0.037   
 308.300   110.576   3.411    17.972   9.467   2.548    63.655  -0.024   
 308.400   119.947   3.413    17.669   5.571   2.615    63.671  -0.040   
 308.500   134.003   3.414    13.512   2.733   2.663    63.677  -0.013   
 308.600    96.520   3.428    11.508   0.485   2.702    63.706  -0.013   
 308.700   157.430   3.445    10.973   9.391   2.549    63.687  -0.011   
 308.800   176.172   3.450    14.732   9.523   2.547    63.687  -0.051   
 308.900   143.374   3.443    13.219   7.111   2.588    63.666  -0.019   
 309.000   143.374   3.377    13.133   8.265   2.569    63.693  -0.005   
 309.100   134.003   3.365    11.814   2.916   2.660    63.711  -0.043   
 309.200   124.632   3.358    12.040  -0.807   2.724    63.693  -0.053   
 309.300   107.453   3.362    12.225   0.130   2.708    63.695  -0.029   
 309.400   143.374   3.376    12.088   5.070   2.623    63.717  -0.027   
 309.500   129.318   3.396    12.201   8.217   2.569    63.719  -0.040   
 309.600   180.858   3.394    13.000   6.746   2.595    63.701  -0.067   
 309.700   148.060   3.376    13.262   7.897   2.575    63.698  -0.032   
 309.800   162.116   3.377    14.328   8.081   2.572    63.717  -0.051   
 309.900    96.520   3.380    12.946   4.568   2.632    63.711  -0.056   
 310.000   129.318   3.382    13.608   9.069   2.555    63.717  -0.056   
 310.100   138.689   3.384    12.639   7.442   2.583    63.735  -0.043   
 310.200   134.003   3.381    11.047   3.643   2.648    63.749  -0.053   
 310.300    96.520   3.378    12.577   2.481   2.668    63.746  -0.051   
 310.400   134.003   3.381    13.354   9.363   2.550    63.746  -0.059   
 310.500   148.060   3.381    13.912   4.504   2.633    63.741  -0.053   
 310.600   185.543   3.380    12.208  -6.091   2.814    63.765  -0.091   
 310.700   157.430   3.380    12.933  -1.271   2.732    63.749  -0.029   
 310.800   105.891   3.401    14.753   0.682   2.698    63.762  -0.043   
 310.900   110.576   3.408    15.552   5.375   2.618    63.773  -0.051   
 311.000   148.060   3.410    15.226   8.454   2.565    63.791  -0.056   
 311.100   119.947   3.407    16.626   7.431   2.583    63.791  -0.043   
 311.200   143.374   3.421    18.769   9.636   2.545    63.799  -0.053   
 311.300   166.801   3.383    23.761   6.116   2.605    63.797  -0.045   
 311.400    91.834   3.371    38.436   0.615   2.699    63.799  -0.024   
