~Version Information
 VERS.                2.0:  CWLS LOG ASCII STANDARD -VERSION 2.0
 WRAP.                 NO:  ONE LINE PER DEPTH STEP
~WELL INFORMATION BLOCK
#MNEM.UNIT       DATA		            DESCRIPTION OF MNEMONIC
#---------    -------------            ------------------------
 STRT.FT  12.700                         :START DEPTH
 STOP.FT  552.200                        :STOP DEPTH
 STEP.FT  0.100                          :STEP    UP_HOLE  
 NULL.    -999.25                        :NULL VALUE
 COMP.                             usgs  :COMPANY
 WELL.   CL1                                                           :WELL
 FLD .                       Candy Lane  :FIELD
 LOC .  Lat 38.61717 Long 107.90174      :LOCATION
 CNTY.                         Montrose  :COUNTY
 STAT.                     CO            :STATE
 SRVC.           None                    :SERVICE COMPANY
 DATE.   11/10/2005                      :LOG DATE
 API .                                   :API NUMBER
 LIC .                                   :LICENSE NUMBER
~Curve Information Block
#MNEM.UNIT      API CODE     Curve Description
#---------    -------------  ------------------------
 DEPT     .FT        00 001 00 00          :  1  DEPTH   
 GAMMA    .CPS       00 310 00 00          :  2                GAMMA
 CALIPER  .INCH      00 280 00 00          :  3              CALIPER
~Parameter Information Block
#MNEM.UNIT   Information     Description
#---------- ---------------  ------------------------
 FILE.      ORIGINAL           :File Type
 FIID.      9074C              :File Type Identifier
 VERS.      3.58F              :System Version
 SER .      1                  :System Serial Number
 TRUK.      .601567            :Truck Calibration Number
 TOOL.         877             :Tool Serial Number
 TIME.      1245               :Time    HrHrMinMin
 LAT .                         :Latitude
 LON .                         :Longitude
 LMF .          None           :Log Measured From
 DMF .            GL           :Driller Measured From
 PD  .          None           :Permanent Data
 PDEV.          None           :Elevation Permanent Data
 EKB .M         None           :Elevation Kelly Bushing
 ELEV.DF         550           :Elevation DF
 EGL .M         None           :Elevation Ground Level
 DRDP.           550           :Driller's Depth
 CASD.       8.2               :Casing Diameter
 CASB.            20           :Casing Bottom
 CASX.         steel           :Casing Type
 CAST.         0               :Casing Thickness
 TNOC.          None           :Time Circulation Stopped
 LOGU.       None              :Logging Unit
 RECB.         bscorland       :Recorded By
 OSR1.          None           :Other Services
 OSR2.          None           :Other Services
 OSR3.          None           :Other Services
 BS  .MM       5.875           :Bit Size
 MST .                         :Mean Surface Temperature
 TGRD.        0                :Temperature Gradiant
 MAGN.             0           :Magnetic Declination
 MDEN.      2.71               :Density Matrix
 MATR.       Dolomite          :Neutron Matrix
 DTMT.            54           :Delta T Matrix
 DTFL.                         :Delta T Fluid
 MUDS.               0         :Mud Sample Source
 MRS .           0             :Mud Resistivity
 MTP .           0             :Mud Temperature
 MFRS.                         :Resistivity Mud Filtrate
 MFTP.                         :Temperature Mud Filtrate
 MCRS.         0               :Resistivity Mud Cake
 MCTP.                         :Temperature Mud Cake
 FTYP.             0           :Fluid Type
 FD  .K/M3                     :Fluid Density
 DFV .S                        :Fluid Viscosity
 FPH .                         :Fuild PH
 ELCO.        2500             :Electron Cutoff
~Other Information
#MNEM.UNIT  Information      Description
#---------- ---------------  ------------------------
# -------------------------- 
~A DEPTH  GAMMA     CALIPER 
# ...
 150.700   160.000   5.127  
 150.800   155.000   5.125  
 150.900   170.000   5.121  
 151.000    95.000   5.124  
 151.100   135.000   5.119  
 151.200   130.000   5.121  
 151.300    95.000   5.119  
 151.400   110.000   5.119  
 151.500   150.000   5.115  
 151.600   185.000   5.115  
 151.700   120.000   5.111  
 151.800    80.000   5.109  
 151.900   120.000   5.109  
 152.000   130.000   5.109  
 152.100   135.000   5.109  
 152.200   115.000   5.109  
 152.300   125.000   5.107  
 152.400   210.000   5.109  
 152.500   146.667   5.109  
 152.600   115.000   5.109  
 152.700   110.000   5.109  
 152.800   105.000   5.109  
 152.900    95.000   5.109  
 153.000   130.000   5.107  
 153.100    95.000   5.109  
 153.200   105.000   5.109  
 153.300   100.000   5.113  
 153.400   105.000   5.116  
 153.500    96.667   5.117  
 153.600    70.000   5.117  
 153.700   110.000   5.117  
 153.800   125.000   5.117  
 153.900    70.000   5.121  
 154.000   160.000   5.119  
 154.100   140.000   5.117  
 154.200   160.000   5.117  
 154.300   140.000   5.117  
 154.400   145.000   5.117  
 154.500   135.000   5.119  
 154.600   170.000   5.121  
 154.700   150.000   5.121  
 154.800   110.000   5.121  
 154.900   140.000   5.121  
 155.000   206.667   5.119  
 155.100   145.000   5.117  
 155.200   125.000   5.117  
 155.300   135.000   5.117  
 155.400   155.000   5.117  
 155.500   165.000   5.117  
 155.600   125.000   5.117  
 155.700   185.000   5.121  
 155.800   110.000   5.119  
 155.900   190.000   5.118  
 156.000   150.000   5.117  
 156.100    95.000   5.119  
 156.200   150.000   5.119  
 156.300   105.000   5.121  
 156.400   115.000   5.115  
 156.500   110.000   5.121  
 156.600    90.000   5.115  
 156.700   135.000   5.109  
 156.800   125.000   5.107  
 156.900   103.333   5.105  
 157.000   110.000   5.107  
 157.100   105.000   5.105  
 157.200   130.000   5.105  
 157.300    95.000   5.105  
 157.400   190.000   5.105  
 157.500   130.000   5.103  
 157.600    90.000   5.105  
 157.700   170.000   5.105  
 157.800   115.000   5.105  
 157.900   105.000   5.105  
 158.000    85.000   5.105  
 158.100    83.333   5.105  
 158.200    95.000   5.105  
 158.300    75.000   5.105  
 158.400   175.000   5.105  
 158.500   150.000   5.109  
 158.600   110.000   5.109  
 158.700   130.000   5.111  
 158.800   135.000   5.113  
 158.900    85.000   5.113  
 159.000   156.667   5.115  
 159.100   160.000   5.113  
 159.200   115.000   5.116  
 159.300   140.000   5.117  
 159.400   145.000   5.121  
 159.500   150.000   5.125  
 159.600   125.000   5.129  
 159.700   135.000   5.127  
 159.800   115.000   5.129  
 159.900   145.000   5.127  
 160.000   160.000   5.127  
 160.100   150.000   5.129  
 160.200   143.333   5.125  
 160.300   100.000   5.125  
 160.400   125.000   5.123  
 160.500   125.000   5.125  
 160.600   140.000   5.125  
 160.700   170.000   5.125  
 160.800   165.000   5.125  
 160.900   165.000   5.123  
 161.000   130.000   5.125  
 161.100   140.000   5.125  
 161.200   175.000   5.123  
 161.300   140.000   5.123  
 161.400   143.333   5.123  
 161.500   170.000   5.123  
 161.600   150.000   5.123  
 161.700   160.000   5.124  
 161.800   185.000   5.123  
 161.900   135.000   5.123  
 162.000   140.000   5.123  
 162.100   200.000   5.121  
 162.200   123.333   5.121  
 162.300   115.000   5.121  
 162.400   115.000   5.121  
 162.500   135.000   5.121  
 162.600   115.000   5.119  
 162.700   125.000   5.121  
 162.800   150.000   5.121  
 162.900   110.000   5.121  
 163.000   135.000   5.121  
 163.100   225.000   5.121  
 163.200   100.000   5.121  
 163.300   120.000   5.121  
 163.400   115.000   5.121  
 163.500   160.000   5.121  
 163.600   150.000   5.121  
 163.700   125.000   5.119  
 163.800   120.000   5.119  
 163.900   130.000   5.119  
 164.000   125.000   5.119  
 164.100   165.000   5.117  
 164.200   140.000   5.121  
 164.300   110.000   5.117  
 164.400   135.000   5.119  
 164.500   153.333   5.119  
 164.600   125.000   5.121  
 164.700   145.000   5.123  
 164.800   120.000   5.125  
 164.900   150.000   5.127  
 165.000   155.000   5.125  
 165.100   220.000   5.125  
 165.200   205.000   5.125  
 165.300   185.000   5.125  
 165.400   170.000   5.127  
 165.500   195.000   5.131  
 165.600   180.000   5.139  
 165.700   215.000   5.142  
 165.800   255.000   5.149  
 165.900   190.000   5.154  
 166.000   155.000   5.180  
 166.100   185.000   5.213  
 166.200   210.000   5.149  
 166.300   175.000   5.137  
 166.400   220.000   5.135  
 166.500   170.000   5.109  
 166.600   165.000   5.109  
 166.700   173.333   5.107  
 166.800   190.000   5.105  
 166.900   210.000   5.105  
 167.000   110.000   5.105  
 167.100   165.000   5.109  
 167.200   190.000   5.107  
 167.300   185.000   5.107  
 167.400   195.000   5.109  
 167.500   175.000   5.111  
 167.600   123.333   5.115  
 167.700   135.000   5.117  
 167.800   190.000   5.121  
 167.900   155.000   5.119  
 168.000   115.000   5.121  
 168.100   175.000   5.118  
 168.200   160.000   5.119  
 168.300   155.000   5.121  
 168.400   110.000   5.119  
 168.500   140.000   5.121  
 168.600   165.000   5.121  
 168.700   100.000   5.121  
 168.800   130.000   5.123  
 168.900   155.000   5.121  
 169.000   175.000   5.121  
 169.100   155.000   5.123  
 169.200   120.000   5.121  
 169.300   150.000   5.121  
 169.400   155.000   5.121  
 169.500   205.000   5.123  
 169.600   175.000   5.123  
 169.700   146.667   5.125  
 169.800   145.000   5.125  
 169.900   185.000   5.115  
 170.000   170.000   5.109  
 170.100   150.000   5.109  
 170.200   180.000   5.109  
 170.300   165.000   5.111  
 170.400   180.000   5.109  
 170.500   210.000   5.109  
 170.600   150.000   5.109  
 170.700   170.000   5.111  
 170.800   205.000   5.109  
 170.900   180.000   5.111  
 171.000   210.000   5.113  
 171.100   205.000   5.109  
 171.200   120.000   5.113  
 171.300   180.000   5.113  
 171.400   195.000   5.115  
 171.500   205.000   5.117  
 171.600   135.000   5.115  
 171.700   155.000   5.115  
 171.800   160.000   5.115  
 171.900   175.000   5.105  
 172.000   170.000   5.105  
 172.100   165.000   5.105  
 172.200   155.000   5.107  
 172.300   180.000   5.105  
 172.400   140.000   5.105  
 172.500   115.000   5.105  
 172.600   135.000   5.105  
 172.700   195.000   5.105  
 172.800   195.000   5.105  
 172.900   145.000   5.105  
 173.000   180.000   5.105  
 173.100   160.000   5.105  
 173.200   100.000   5.105  
 173.300   140.000   5.107  
 173.400   120.000   5.112  
 173.500   195.000   5.119  
 173.600   135.000   5.125  
 173.700   135.000   5.129  
 173.800   175.000   5.131  
 173.900   126.667   5.133  
 174.000   165.000   5.133  
 174.100   125.000   5.133  
 174.200   205.000   5.131  
 174.300   130.000   5.133  
 174.400   155.000   5.133  
 174.500   135.000   5.133  
 174.600   165.000   5.131  
 174.700   130.000   5.133  
 174.800   195.000   5.133  
 174.900   135.000   5.135  
 175.000   163.333   5.133  
 175.100   185.000   5.135  
 175.200   170.000   5.137  
 175.300   210.000   5.135  
 175.400   230.000   5.137  
 175.500   275.000   5.137  
 175.600   230.000   5.141  
 175.700   235.000   5.141  
 175.800   250.000   5.143  
 175.900   260.000   5.160  
 176.000   220.000   5.139  
 176.100   200.000   5.123  
 176.200   190.000   5.119  
 176.300   155.000   5.107  
 176.400   190.000   5.109  
 176.500   180.000   5.103  
 176.600   190.000   5.101  
 176.700   145.000   5.101  
 176.800   125.000   5.101  
 176.900   213.333   5.103  
 177.000   155.000   5.101  
 177.100   155.000   5.103  
 177.200   120.000   5.101  
 177.300   110.000   5.101  
 177.400   110.000   5.100  
 177.500   170.000   5.101  
 177.600   195.000   5.097  
 177.700   125.000   5.097  
 177.800   150.000   5.097  
 177.900   110.000   5.097  
 178.000   146.667   5.101  
 178.100   115.000   5.099  
 178.200   125.000   5.097  
