~Version Information
 VERS.                2.0:  CWLS LOG ASCII STANDARD -VERSION 2.0
 WRAP.                 NO:  ONE LINE PER DEPTH STEP
~WELL INFORMATION BLOCK
#MNEM.UNIT       DATA		            DESCRIPTION OF MNEMONIC
#---------    -------------            ------------------------
 STRT.FT  6.300                          :START DEPTH
 STOP.FT  557.000                        :STOP DEPTH
 STEP.FT  0.100                          :STEP    UP_HOLE  
 NULL.    -999.25                        :NULL VALUE
 COMP.                             usgs  :COMPANY
 WELL.   CL1                                                           :WELL
 FLD .                       Candy Lane  :FIELD
 LOC . Lat 38.61717 Long 107.90174       :LOCATION
 CNTY.                         Montrose  :COUNTY
 STAT.                     CO            :STATE
 SRVC.           None                    :SERVICE COMPANY
 DATE.   11/10/2005                      :LOG DATE
 API .                                   :API NUMBER
 LIC .                                   :LICENSE NUMBER
~Curve Information Block
#MNEM.UNIT      API CODE     Curve Description
#---------    -------------  ------------------------
 DEPT     .FT        00 001 00 00          :  1  DEPTH   
 GAMMA    .API-GR    00 310 00 00          :  2                GAMMA
 CALIPER  .INCH      00 280 00 00          :  3              CALIPER
 RES(SG)  .OHM-M     00 220 00 00          :  4              RES(SG)
 POR(DEN) .PERCENT   00 890 00 00          :  5             POR(DEN)
 DEN(CDL) .G/CC      00 350 00 00          :  6             DEN(CDL)
 TEMP     .DEG F     00 660 00 00          :  7                 TEMP
 DEL TEMP .DEG F     00 000 00 00          :  8             DEL TEMP
~Parameter Information Block
#MNEM.UNIT   Information     Description
#---------- ---------------  ------------------------
 FILE.      ORIGINAL           :File Type
 FIID.      9139A              :File Type Identifier
 VERS.      3.58F              :System Version
 SER .      1                  :System Serial Number
 TRUK.      .601567            :Truck Calibration Number
 TOOL.        1239             :Tool Serial Number
 TIME.      1635               :Time    HrHrMinMin
 LAT .                         :Latitude
 LON .                         :Longitude
 LMF .          None           :Log Measured From
 DMF .            GL           :Driller Measured From
 PD  .          None           :Permanent Data
 PDEV.          None           :Elevation Permanent Data
 EKB .M         None           :Elevation Kelly Bushing
 ELEV.DF         550           :Elevation DF
 EGL .M         None           :Elevation Ground Level
 DRDP.           550           :Driller's Depth
 CASD.       8.2               :Casing Diameter
 CASB.            20           :Casing Bottom
 CASX.         steel           :Casing Type
 CAST.         0               :Casing Thickness
 TNOC.          None           :Time Circulation Stopped
 LOGU.       None              :Logging Unit
 RECB.         bscorland       :Recorded By
 OSR1.          None           :Other Services
 OSR2.          None           :Other Services
 OSR3.          None           :Other Services
 BS  .MM       5.875           :Bit Size
 MST .                         :Mean Surface Temperature
 TGRD.        0                :Temperature Gradiant
 MAGN.             0           :Magnetic Declination
 MDEN.      2.71               :Density Matrix
 MATR.       Dolomite          :Neutron Matrix
 DTMT.            54           :Delta T Matrix
 DTFL.                         :Delta T Fluid
 MUDS.               0         :Mud Sample Source
 MRS .           0             :Mud Resistivity
 MTP .           0             :Mud Temperature
 MFRS.                         :Resistivity Mud Filtrate
 MFTP.                         :Temperature Mud Filtrate
 MCRS.         0               :Resistivity Mud Cake
 MCTP.                         :Temperature Mud Cake
 FTYP.             0           :Fluid Type
 FD  .K/M3                     :Fluid Density
 DFV .S                        :Fluid Viscosity
 FPH .                         :Fuild PH
 ELCO.        2500             :Electron Cutoff
~Other Information
#MNEM.UNIT  Information      Description
#---------- ---------------  ------------------------
# -------------------------- 
~A DEPTH  GAMMA     CALIPER RES(SG)   POR(DEN) DEN(CDL) TEMP    DEL TEMP 
# ...
 442.300   157.430   3.426     9.301   4.100   2.640    68.507  -0.033   
 442.400   138.689   3.428     8.442   3.446   2.651    68.500  -0.034   
 442.500   148.060   3.427     8.738   3.255   2.654    68.504  -0.036   
 442.600   105.891   3.431     8.185   4.132   2.639    68.499  -0.022   
 442.700    73.093   3.439     7.449   4.862   2.627    68.516  -0.040   
 442.800   152.745   3.443     7.350   5.193   2.621    68.512  -0.024   
 442.900   124.632   3.441     8.350   6.118   2.605    68.525  -0.033   
 443.000   124.632   3.441     8.194   3.359   2.653    68.518  -0.037   
 443.100   105.891   3.444     7.708   9.776   2.543    68.525  -0.042   
 443.200    82.464   3.439     7.482   5.161   2.622    68.521  -0.034   
 443.300   129.318   3.436     7.658   3.875   2.644    68.533  -0.030   
 443.400   148.060   3.437     7.773   4.213   2.638    68.538  -0.041   
 443.500   105.891   3.439     7.668   3.070   2.658    68.534  -0.036   
 443.600   124.632   3.439     7.563   8.133   2.571    68.538  -0.022   
 443.700   148.060   3.438     8.410   6.459   2.600    68.551  -0.037   
 443.800   115.262   3.437     8.537   7.054   2.589    68.549  -0.043   
 443.900   115.262   3.433     7.904   7.228   2.586    68.551  -0.034   
 444.000   148.060   3.433     7.563   7.186   2.587    68.562  -0.037   
 444.100    73.093   3.434     7.605   8.085   2.572    68.563  -0.045   
 444.200    91.834   3.433     7.651   6.979   2.591    68.567  -0.041   
 444.300   129.318   3.431     7.349   3.946   2.643    68.569  -0.050   
 444.400   105.891   3.430     7.314   4.008   2.641    68.575  -0.054   
 444.500   162.116   3.428     6.976   5.394   2.618    68.574  -0.062   
 444.600   105.891   3.424     7.836   7.112   2.588    68.574  -0.063   
 444.700   152.745   3.422     8.842  10.993   2.522    68.586  -0.070   
 444.800   134.003   3.417     8.799   5.668   2.613    68.595  -0.069   
 444.900   143.374   3.408     8.761   2.937   2.660    68.596  -0.069   
 445.000   105.891   3.407     8.188   3.219   2.655    68.600  -0.074   
 445.100   157.430   3.416     7.618   4.077   2.640    68.612  -0.057   
 445.200   124.632   3.423     7.012   4.672   2.630    68.609  -0.055   
 445.300   148.060   3.424     7.153   3.600   2.648    68.625  -0.034   
 445.400   180.858   3.429     7.049   5.391   2.618    68.628  -0.041   
 445.500   115.262   3.430     7.258   7.291   2.585    68.636  -0.025   
 445.600   115.262   3.431     7.248   6.801   2.594    68.649  0.003    
 445.700   166.801   3.431     6.204   2.851   2.661    68.665  0.000    
 445.800   124.632   3.433     6.600  12.764   2.492    68.665  -0.014   
 445.900   143.374   3.436     6.962   7.336   2.585    68.669  0.013    
 446.000   157.430   3.439     7.039   6.692   2.596    68.686  -0.011   
 446.100   115.262   3.444     6.343   1.758   2.680    68.666  0.009    
 446.200   176.172   3.447     6.976   5.762   2.611    68.681  -0.011   
 446.300   152.745   3.450     6.846   2.911   2.660    68.662  -0.001   
 446.400   138.689   3.447     6.912   4.219   2.638    68.677  0.001    
 446.500   138.689   3.446     7.268   7.236   2.586    68.674  -0.011   
 446.600   134.003   3.447     6.926   5.013   2.624    68.662  -0.008   
 446.700   110.576   3.446     6.882   7.707   2.578    68.665  0.013    
 446.800   171.487   3.445     7.000   5.996   2.607    68.683  -0.011   
 446.900   157.430   3.444     7.044   6.630   2.597    68.673  -0.009   
 447.000   115.262   3.443     7.573   8.857   2.559    68.677  -0.008   
 447.100   157.430   3.441     7.335   1.788   2.679    68.671  -0.011   
 447.200   138.689   3.440     7.862   6.762   2.594    68.673  -0.008   
 447.300   134.003   3.441     7.795   2.649   2.665    68.678  -0.011   
 447.400   141.812   3.439     7.992   3.899   2.643    68.673  -0.017   
 447.500   119.947   3.442     8.142   2.109   2.674    68.673  -0.018   
 447.600   119.947   3.441     7.938   4.273   2.637    68.673  -0.016   
 447.700   134.003   3.434     7.827   2.947   2.660    68.670  -0.008   
 447.800   101.205   3.429     7.939   0.363   2.704    68.683  -0.004   
 447.900   110.576   3.428     8.738   4.574   2.632    68.686  -0.012   
 448.000   134.003   3.429     8.215   4.382   2.635    68.679  -0.011   
 448.100   124.632   3.432     7.685   5.952   2.608    68.683  -0.004   
 448.200   152.745   3.434     7.402   5.191   2.621    68.686  -0.008   
 448.300   148.060   3.434     8.040   4.127   2.639    68.683  -0.008   
 448.400   148.060   3.434     8.195  10.040   2.538    68.690  -0.009   
 448.500   134.003   3.433     7.750   3.639   2.648    68.691  -0.018   
 448.600   152.745   3.433     8.423   3.519   2.650    68.686  -0.014   
 448.700   162.116   3.436     7.868   2.011   2.676    68.691  -0.014   
 448.800   157.430   3.439     7.207   6.916   2.592    68.690  -0.011   
 448.900   180.858   3.441     6.977   5.726   2.612    68.691  -0.011   
 449.000   176.172   3.438     6.940   6.034   2.607    68.694  -0.014   
 449.100   138.689   3.439     6.886   6.859   2.593    68.689  -0.032   
 449.200   129.318   3.442     6.713   9.573   2.546    68.691  -0.016   
 449.300   129.318   3.447     6.658   4.858   2.627    68.698  -0.011   
 449.400   143.374   3.449     6.456   8.807   2.559    68.700  -0.008   
 449.500   204.285   3.452     6.272  11.161   2.519    68.704  -0.017   
 449.600   190.228   3.454     5.324   6.188   2.604    68.706  -0.009   
 449.700   148.060   3.452     5.048  10.402   2.532    68.704  -0.014   
 449.800   171.487   3.449     5.038   7.070   2.589    68.702  -0.007   
 449.900   124.632   3.448     4.963   8.085   2.572    68.704  -0.017   
 450.000   138.689   3.446     4.859   7.014   2.590    68.703  0.004    
 450.100   157.430   3.445     4.952  13.078   2.486    68.723  -0.011   
 450.200   218.341   3.450     4.994   8.339   2.567    68.713  -0.017   
 450.300   208.970   3.452     4.931   9.937   2.540    68.711  -0.014   
 450.400   204.285   3.459     5.116   9.075   2.555    68.712  -0.014   
 450.500   194.914   3.437     4.994  14.055   2.470    68.723  -0.016   
 450.600   166.801   3.445     4.970   8.662   2.562    68.713  -0.017   
 450.700   218.341   3.448     5.226   8.227   2.569    68.716  -0.037   
 450.800   134.003   3.457     4.973   6.853   2.593    68.711  -0.030   
 450.900   190.228   3.459     5.047  13.321   2.482    68.720  -0.025   
 451.000   255.825   3.477     5.013  14.620   2.460    68.719  -0.030   
 451.100   241.768   3.537     4.894  18.510   2.393    68.724  -0.025   
 451.200   148.060   3.611     4.947  14.265   2.466    68.728  -0.037   
 451.300   260.510   3.729     4.813  11.101   2.520    68.727  -0.029   
 451.400   269.881   3.845     4.596  13.442   2.480    68.737  -0.034   
 451.500   255.825   3.874     5.045  12.925   2.489    68.729  -0.036   
 451.600   241.768   3.866     4.935   9.823   2.542    68.733  -0.028   
 451.700   246.454   3.785     5.075   0.660   2.699    68.748  -0.024   
 451.800   255.825   3.710     5.066   5.741   2.612    68.750  -0.037   
 451.900   294.870   3.518     4.986  14.744   2.458    68.744  -0.026   
 452.000   251.139   3.484     4.952  15.599   2.443    68.754  -0.028   
 452.100   279.252   3.419     5.351  17.513   2.411    68.753  -0.021   
 452.200   288.623   3.417     5.102  19.382   2.379    68.764  -0.029   
 452.300   185.543   3.418     4.987  17.704   2.407    68.766  -0.033   
 452.400   208.970   3.417     5.040  17.484   2.411    68.764  -0.038   
 452.500   198.038   3.417     5.164  11.582   2.512    68.769  -0.037   
 452.600   148.060   3.416     5.910   4.328   2.636    68.775  -0.033   
 452.700   213.656   3.416     6.559   4.724   2.629    68.774  -0.040   
 452.800   185.543   3.418     6.735   5.905   2.609    68.781  -0.038   
 452.900   143.374   3.419     7.028   2.459   2.668    68.781  -0.024   
 453.000   194.914   3.425     6.868   8.661   2.562    68.781  -0.026   
 453.100   157.430   3.429     6.889   8.088   2.572    68.785  -0.024   
