~Version Information
 VERS.                2.0:  CWLS LOG ASCII STANDARD -VERSION 2.0
 WRAP.                 NO:  ONE LINE PER DEPTH STEP
~WELL INFORMATION BLOCK
#MNEM.UNIT       DATA		            DESCRIPTION OF MNEMONIC
#---------    -------------            ------------------------
 STRT.FT  6.300                          :START DEPTH
 STOP.FT  557.000                        :STOP DEPTH
 STEP.FT  0.100                          :STEP    UP_HOLE  
 NULL.    -999.25                        :NULL VALUE
 COMP.                             usgs  :COMPANY
 WELL.   CL1                                                           :WELL
 FLD .                       Candy Lane  :FIELD
 LOC . Lat 38.61717 Long 107.90174       :LOCATION
 CNTY.                         Montrose  :COUNTY
 STAT.                     CO            :STATE
 SRVC.           None                    :SERVICE COMPANY
 DATE.   11/10/2005                      :LOG DATE
 API .                                   :API NUMBER
 LIC .                                   :LICENSE NUMBER
~Curve Information Block
#MNEM.UNIT      API CODE     Curve Description
#---------    -------------  ------------------------
 DEPT     .FT        00 001 00 00          :  1  DEPTH   
 GAMMA    .API-GR    00 310 00 00          :  2                GAMMA
 CALIPER  .INCH      00 280 00 00          :  3              CALIPER
 RES(SG)  .OHM-M     00 220 00 00          :  4              RES(SG)
 POR(DEN) .PERCENT   00 890 00 00          :  5             POR(DEN)
 DEN(CDL) .G/CC      00 350 00 00          :  6             DEN(CDL)
 TEMP     .DEG F     00 660 00 00          :  7                 TEMP
 DEL TEMP .DEG F     00 000 00 00          :  8             DEL TEMP
~Parameter Information Block
#MNEM.UNIT   Information     Description
#---------- ---------------  ------------------------
 FILE.      ORIGINAL           :File Type
 FIID.      9139A              :File Type Identifier
 VERS.      3.58F              :System Version
 SER .      1                  :System Serial Number
 TRUK.      .601567            :Truck Calibration Number
 TOOL.        1239             :Tool Serial Number
 TIME.      1635               :Time    HrHrMinMin
 LAT .                         :Latitude
 LON .                         :Longitude
 LMF .          None           :Log Measured From
 DMF .            GL           :Driller Measured From
 PD  .          None           :Permanent Data
 PDEV.          None           :Elevation Permanent Data
 EKB .M         None           :Elevation Kelly Bushing
 ELEV.DF         550           :Elevation DF
 EGL .M         None           :Elevation Ground Level
 DRDP.           550           :Driller's Depth
 CASD.       8.2               :Casing Diameter
 CASB.            20           :Casing Bottom
 CASX.         steel           :Casing Type
 CAST.         0               :Casing Thickness
 TNOC.          None           :Time Circulation Stopped
 LOGU.       None              :Logging Unit
 RECB.         bscorland       :Recorded By
 OSR1.          None           :Other Services
 OSR2.          None           :Other Services
 OSR3.          None           :Other Services
 BS  .MM       5.875           :Bit Size
 MST .                         :Mean Surface Temperature
 TGRD.        0                :Temperature Gradiant
 MAGN.             0           :Magnetic Declination
 MDEN.      2.71               :Density Matrix
 MATR.       Dolomite          :Neutron Matrix
 DTMT.            54           :Delta T Matrix
 DTFL.                         :Delta T Fluid
 MUDS.               0         :Mud Sample Source
 MRS .           0             :Mud Resistivity
 MTP .           0             :Mud Temperature
 MFRS.                         :Resistivity Mud Filtrate
 MFTP.                         :Temperature Mud Filtrate
 MCRS.         0               :Resistivity Mud Cake
 MCTP.                         :Temperature Mud Cake
 FTYP.             0           :Fluid Type
 FD  .K/M3                     :Fluid Density
 DFV .S                        :Fluid Viscosity
 FPH .                         :Fuild PH
 ELCO.        2500             :Electron Cutoff
~Other Information
#MNEM.UNIT  Information      Description
#---------- ---------------  ------------------------
# -------------------------- 
~A DEPTH  GAMMA     CALIPER RES(SG)   POR(DEN) DEN(CDL) TEMP    DEL TEMP 
# ...
 224.300   115.262   3.429    13.703   2.630   2.665    58.791  -0.056   
 224.400    91.834   3.430    13.619  -1.514   2.736    58.828  -0.021   
 224.500   124.632   3.429    13.617   6.144   2.605    58.839  -0.035   
 224.600   166.801   3.429    13.771   3.461   2.651    58.820  -0.013   
 224.700    82.464   3.431    13.991  -6.112   2.815    58.847  0.019    
 224.800    82.464   3.435    14.410  -2.567   2.754    58.857  0.037    
 224.900    63.722   3.438    15.010  -3.533   2.770    58.881  0.029    
 225.000    82.464   3.438    15.277  -1.236   2.731    58.863  0.019    
 225.100   143.374   3.440    16.701  -3.161   2.764    58.865  0.005    
 225.200    73.093   3.439    16.994  -1.787   2.741    58.873  0.003    
 225.300    63.722   3.439    17.295  -3.723   2.774    58.884  0.019    
 225.400    77.778   3.439    18.176   3.383   2.652    58.860  -0.003   
 225.500    68.407   3.437    21.897  -5.294   2.801    58.855  0.024    
 225.600   129.318   3.435    23.745  -5.112   2.797    58.860  -0.037   
 225.700    73.093   3.433    22.998  -6.563   2.822    58.839  -0.008   
 225.800    68.407   3.433    22.096  -4.941   2.794    58.844  -0.037   
 225.900    77.778   3.433    22.237   1.172   2.690    58.833  -0.037   
 226.000    73.093   3.433    22.395  -2.893   2.759    58.847  0.003    
 226.100    96.520   3.434    23.499  -3.556   2.771    58.868  -0.019   
 226.200   115.262   3.433    23.273  -2.577   2.754    58.881  -0.051   
 226.300   134.003   3.434    20.826  -3.425   2.769    58.841  -0.056   
 226.400    96.520   3.434    20.572  -0.994   2.727    58.857  -0.069   
 226.500   105.891   3.433    19.889   1.356   2.687    58.836  -0.037   
 226.600   134.003   3.434    18.736   0.961   2.694    58.876  -0.085   
 226.700    87.149   3.435    16.986   3.066   2.658    58.852  -0.088   
 226.800   119.947   3.434    16.152   3.226   2.655    58.871  -0.064   
 226.900    96.520   3.435    15.423   5.821   2.610    58.884  -0.091   
 227.000   119.947   3.433    15.400   3.776   2.645    58.865  -0.072   
 227.100   176.172   3.435    16.326   2.670   2.664    58.900  -0.075   
 227.200   190.228   3.435    15.186  -0.017   2.710    58.892  -0.083   
 227.300   185.543   3.435    14.427  10.503   2.530    58.913  -0.059   
 227.400   143.374   3.437    14.122   7.297   2.585    58.905  -0.088   
 227.500   124.632   3.437    14.884   2.451   2.668    58.913  -0.080   
 227.600   152.745   3.437    14.821   1.064   2.692    58.937  -0.043   
 227.700   143.374   3.438    14.843  10.112   2.537    58.958  -0.077   
 227.800   176.172   3.439    16.032   2.091   2.674    58.948  -0.064   
 227.900   138.689   3.438    14.598   4.013   2.641    58.956  -0.096   
 228.000   204.285   3.439    13.577   2.411   2.669    58.972  -0.096   
 228.100   148.060   3.439    13.372   3.278   2.654    58.966  -0.093   
 228.200   171.487   3.438    13.138   6.182   2.604    58.996  -0.120   
 228.300   143.374   3.439    12.855   7.576   2.580    58.964  -0.096   
 228.400   129.318   3.439    12.880   2.966   2.659    59.001  -0.080   
 228.500   101.205   3.440    13.840   3.638   2.648    59.017  -0.115   
 228.600   157.430   3.440    13.724   5.863   2.610    59.001  -0.104   
 228.700   171.487   3.442    13.846   6.867   2.593    59.025  -0.117   
 228.800   134.003   3.440    13.736   2.279   2.671    59.020  -0.069   
 228.900   157.430   3.443    13.233   0.039   2.709    59.068  -0.080   
 229.000   246.454   3.447    13.043   6.511   2.599    59.062  -0.056   
 229.100   171.487   3.451    12.778   0.262   2.706    59.089  -0.091   
 229.200   143.374   3.446    12.740  -0.475   2.718    59.084  -0.067   
 229.300   204.285   3.445    12.127   8.754   2.560    59.097  -0.061   
 229.400   204.285   3.447    11.226   8.300   2.568    59.097  -0.067   
 229.500   180.858   3.446    10.854   5.392   2.618    59.116  -0.053   
 229.600   232.397   3.447    10.452   5.030   2.624    59.129  -0.051   
 229.700   185.543   3.446    11.031  11.395   2.515    59.137  -0.067   
 229.800   218.341   3.448    11.767  10.064   2.538    59.137  -0.053   
 229.900   171.487   3.448    12.451  11.651   2.511    59.142  -0.043   
 230.000   119.947   3.448    12.322  11.640   2.511    59.145  -0.037   
 230.100   157.430   3.450    12.299  11.670   2.510    59.174  -0.053   
 230.200   171.487   3.476    12.001   6.901   2.592    59.164  -0.056   
 230.300   213.656   3.554    11.321   4.379   2.635    59.158  -0.040   
 230.400   129.318   3.610    11.004   2.833   2.662    59.182  -0.059   
 230.500   176.172   3.640    10.734   6.608   2.597    59.182  -0.067   
 230.600   199.599   3.635    10.464   5.024   2.624    59.188  -0.048   
 230.700   138.689   3.414     9.888   3.159   2.656    59.204  -0.072   
 230.800   199.599   3.413     9.078   4.614   2.631    59.196  -0.072   
 230.900   269.881   3.412     9.055   7.358   2.584    59.188  -0.048   
 231.000   232.397   3.409     9.123   6.669   2.596    59.212  -0.072   
 231.100   134.003   3.386     9.641   7.209   2.587    59.217  -0.075   
 231.200   171.487   3.363    10.732  10.719   2.527    59.214  -0.072   
 231.300   208.970   3.340    11.523   6.096   2.606    59.222  -0.053   
 231.400   227.712   3.308    11.526   8.506   2.565    59.241  -0.035   
 231.500   152.745   3.283    11.548   5.401   2.618    59.254  -0.064   
 231.600   166.801   3.276    11.552   5.943   2.608    59.252  -0.064   
 231.700   176.172   3.268    11.552   9.140   2.554    59.267  -0.051   
 231.800   152.745   3.265    11.538   4.820   2.628    59.259  -0.053   
 231.900   166.801   3.265    11.562   8.630   2.562    59.259  -0.048   
 232.000   204.285   3.265    11.721  12.017   2.505    59.289  -0.048   
 232.100   119.947   3.265    11.552  11.153   2.519    59.289  -0.053   
 232.200   119.947   3.268    11.595   4.689   2.630    59.294  -0.067   
 232.300   157.430   3.293    11.552   6.529   2.598    59.294  -0.061   
 232.400   110.576   3.335    11.510   3.820   2.645    59.289  -0.083   
 232.500    82.464   3.351    11.942   5.056   2.624    59.315  -0.024   
 232.600   115.262   3.381    12.596   5.586   2.614    59.331  -0.069   
 232.700   110.576   3.425    13.467   7.596   2.580    59.310  -0.053   
 232.800    73.093   3.443    16.002   6.886   2.592    59.313  -0.040   
 232.900    73.093   3.459    24.225   8.020   2.573    59.337  -0.053   
 233.000    87.149   3.464    35.671   3.294   2.654    59.337  -0.075   
 233.100    91.834   3.469    39.222   2.662   2.664    59.347  -0.040   
 233.200    91.834   3.473    29.763   0.767   2.697    59.361  -0.027   
 233.300   134.003   3.473    16.551   0.698   2.698    59.350  -0.029   
 233.400   138.689   3.475    12.292   1.639   2.682    59.398  -0.091   
 233.500   119.947   3.475    11.788   1.674   2.681    59.355  -0.048   
 233.600   119.947   3.476    12.106   7.480   2.582    59.379  -0.080   
 233.700    73.093   3.475    12.155   7.807   2.577    59.366  -0.088   
 233.800   138.689   3.474    12.874   7.782   2.577    59.377  -0.075   
 233.900   115.262   3.471    13.043   9.223   2.552    59.390  -0.032   
 234.000   101.205   3.471    12.997   9.672   2.545    59.422  -0.051   
 234.100   148.060   3.472    12.899   0.475   2.702    59.401  -0.083   
 234.200   110.576   3.468    13.061   3.021   2.658    59.377  -0.043   
 234.300   157.430   3.463    11.752   6.264   2.603    59.427  -0.032   
 234.400   105.891   3.462    11.509   6.262   2.603    59.446  -0.056   
 234.500   129.318   3.459    11.299   8.474   2.565    59.427  -0.027   
 234.600   166.801   3.452    11.151   5.406   2.618    59.446  -0.021   
 234.700   124.632   3.452    11.078   6.905   2.592    59.465  -0.013   
 234.800   143.374   3.451    10.907  10.483   2.531    59.465  -0.027   
 234.900   105.891   3.450    10.691  12.042   2.504    59.454  -0.019   
 235.000   129.318   3.449    10.466  11.318   2.516    59.451  -0.021   
 235.100   115.262   3.448    10.381   8.074   2.572    59.459  -0.019   
