~Version Information
 VERS.                2.0:  CWLS LOG ASCII STANDARD -VERSION 2.0
 WRAP.                 NO:  ONE LINE PER DEPTH STEP
~WELL INFORMATION BLOCK
#MNEM.UNIT       DATA		            DESCRIPTION OF MNEMONIC
#---------    -------------            ------------------------
 STRT.FT  6.300                          :START DEPTH
 STOP.FT  557.000                        :STOP DEPTH
 STEP.FT  0.100                          :STEP    UP_HOLE  
 NULL.    -999.25                        :NULL VALUE
 COMP.                             usgs  :COMPANY
 WELL.   CL1                                                           :WELL
 FLD .                       Candy Lane  :FIELD
 LOC . Lat 38.61717 Long 107.90174       :LOCATION
 CNTY.                         Montrose  :COUNTY
 STAT.                     CO            :STATE
 SRVC.           None                    :SERVICE COMPANY
 DATE.   11/10/2005                      :LOG DATE
 API .                                   :API NUMBER
 LIC .                                   :LICENSE NUMBER
~Curve Information Block
#MNEM.UNIT      API CODE     Curve Description
#---------    -------------  ------------------------
 DEPT     .FT        00 001 00 00          :  1  DEPTH   
 GAMMA    .API-GR    00 310 00 00          :  2                GAMMA
 CALIPER  .INCH      00 280 00 00          :  3              CALIPER
 RES(SG)  .OHM-M     00 220 00 00          :  4              RES(SG)
 POR(DEN) .PERCENT   00 890 00 00          :  5             POR(DEN)
 DEN(CDL) .G/CC      00 350 00 00          :  6             DEN(CDL)
 TEMP     .DEG F     00 660 00 00          :  7                 TEMP
 DEL TEMP .DEG F     00 000 00 00          :  8             DEL TEMP
~Parameter Information Block
#MNEM.UNIT   Information     Description
#---------- ---------------  ------------------------
 FILE.      ORIGINAL           :File Type
 FIID.      9139A              :File Type Identifier
 VERS.      3.58F              :System Version
 SER .      1                  :System Serial Number
 TRUK.      .601567            :Truck Calibration Number
 TOOL.        1239             :Tool Serial Number
 TIME.      1635               :Time    HrHrMinMin
 LAT .                         :Latitude
 LON .                         :Longitude
 LMF .          None           :Log Measured From
 DMF .            GL           :Driller Measured From
 PD  .          None           :Permanent Data
 PDEV.          None           :Elevation Permanent Data
 EKB .M         None           :Elevation Kelly Bushing
 ELEV.DF         550           :Elevation DF
 EGL .M         None           :Elevation Ground Level
 DRDP.           550           :Driller's Depth
 CASD.       8.2               :Casing Diameter
 CASB.            20           :Casing Bottom
 CASX.         steel           :Casing Type
 CAST.         0               :Casing Thickness
 TNOC.          None           :Time Circulation Stopped
 LOGU.       None              :Logging Unit
 RECB.         bscorland       :Recorded By
 OSR1.          None           :Other Services
 OSR2.          None           :Other Services
 OSR3.          None           :Other Services
 BS  .MM       5.875           :Bit Size
 MST .                         :Mean Surface Temperature
 TGRD.        0                :Temperature Gradiant
 MAGN.             0           :Magnetic Declination
 MDEN.      2.71               :Density Matrix
 MATR.       Dolomite          :Neutron Matrix
 DTMT.            54           :Delta T Matrix
 DTFL.                         :Delta T Fluid
 MUDS.               0         :Mud Sample Source
 MRS .           0             :Mud Resistivity
 MTP .           0             :Mud Temperature
 MFRS.                         :Resistivity Mud Filtrate
 MFTP.                         :Temperature Mud Filtrate
 MCRS.         0               :Resistivity Mud Cake
 MCTP.                         :Temperature Mud Cake
 FTYP.             0           :Fluid Type
 FD  .K/M3                     :Fluid Density
 DFV .S                        :Fluid Viscosity
 FPH .                         :Fuild PH
 ELCO.        2500             :Electron Cutoff
~Other Information
#MNEM.UNIT  Information      Description
#---------- ---------------  ------------------------
# -------------------------- 
~A DEPTH  GAMMA     CALIPER RES(SG)   POR(DEN) DEN(CDL) TEMP    DEL TEMP 
# ...
 518.600   129.318   3.397     8.926   3.947   2.643    70.567  -0.028   
 518.700   115.262   3.398     9.617   9.541   2.547    70.575  -0.029   
 518.800   119.947   3.400     9.281   7.156   2.588    70.573  -0.029   
 518.900    91.834   3.410     8.664  10.508   2.530    70.583  -0.025   
 519.000   124.632   3.411     8.447   8.650   2.562    70.581  -0.022   
 519.100   171.487   3.412     9.309   6.134   2.605    70.586  -0.007   
 519.200   134.003   3.415     9.305   4.718   2.629    70.596  -0.024   
 519.300   176.172   3.420     9.336   4.558   2.632    70.595  -0.007   
 519.400   119.947   3.423     8.158   8.161   2.570    70.606  -0.018   
 519.500   124.632   3.426     8.779   3.528   2.650    70.604  -0.021   
 519.600   134.003   3.424     8.966   6.623   2.597    70.603  -0.021   
 519.700    68.407   3.430     8.616   4.124   2.639    70.602  -0.014   
 519.800   162.116   3.426     8.403   7.109   2.588    70.612  -0.024   
 519.900   154.307   3.424     8.297   3.586   2.649    70.606  -0.034   
 520.000   138.689   3.424     7.875  13.596   2.478    70.608  -0.014   
 520.100   124.632   3.422     8.179  11.219   2.518    70.603  -0.013   
 520.200   134.003   3.423     7.869   1.404   2.686    70.619  -0.024   
 520.300   180.858   3.423     7.791   8.581   2.563    70.612  -0.011   
 520.400   124.632   3.423     8.086   7.768   2.577    70.623  -0.026   
 520.500   180.858   3.428     7.421  11.347   2.516    70.624  -0.025   
 520.600   110.576   3.423     7.444   7.083   2.589    70.623  -0.005   
 520.700   185.543   3.423     7.631   9.083   2.555    70.627  -0.011   
 520.800   194.914   3.423     7.475   4.462   2.634    70.629  -0.009   
 520.900   143.374   3.424     7.517   7.426   2.583    70.643  -0.021   
 521.000   101.205   3.423     7.623   6.889   2.592    70.617  -0.025   
 521.100   180.858   3.425     7.682   5.600   2.614    70.632  -0.029   
 521.200   176.172   3.426     7.195   6.964   2.591    70.636  -0.016   
 521.300   194.914   3.424     7.821   7.963   2.574    70.633  -0.013   
 521.400   105.891   3.423     7.678   8.423   2.566    70.650  -0.028   
 521.500   124.632   3.425     7.603  10.652   2.528    70.648  -0.041   
 521.600   180.858   3.425     7.278   8.007   2.573    70.632  -0.037   
 521.700   194.914   3.422     7.673   4.140   2.639    70.640  -0.025   
 521.800   138.689   3.418     7.359   8.121   2.571    70.652  -0.043   
 521.900   171.487   3.415     7.780   5.474   2.616    70.639  -0.022   
 522.000   105.891   3.413     7.117  -0.498   2.719    70.657  -0.001   
 522.100   129.318   3.396     7.314   6.722   2.595    70.665  -0.030   
 522.200   157.430   3.388     7.289   4.427   2.634    70.649  -0.032   
 522.300   129.318   3.385     7.812   7.145   2.588    70.664  -0.022   
 522.400   148.060   3.395     7.416   6.356   2.601    70.675  -0.021   
 522.500   134.003   3.416     8.743   5.480   2.616    70.673  -0.024   
 522.600   101.205   3.416     8.106   6.598   2.597    70.677  -0.030   
 522.700   134.003   3.418     8.079   8.411   2.566    70.677  -0.032   
 522.800   134.003   3.420     8.511  11.806   2.508    70.682  -0.020   
 522.900   162.116   3.418     8.073   7.925   2.574    70.679  -0.049   
 523.000   134.003   3.409     8.365   8.806   2.559    70.666  -0.038   
 523.100   138.689   3.409     8.863   3.750   2.646    70.679  -0.011   
 523.200   162.116   3.416     8.524   6.596   2.597    70.695  -0.018   
 523.300   119.947   3.420     8.317   6.586   2.597    70.698  -0.014   
 523.400   134.003   3.418     7.866   7.899   2.575    70.694  -0.001   
 523.500   171.487   3.420     7.521   4.255   2.637    70.700  -0.001   
 523.600   166.801   3.420     8.832   4.746   2.629    70.707  0.008    
 523.700   134.003   3.420     8.820   9.258   2.552    70.714  -0.018   
 523.800    96.520   3.420     8.436   9.471   2.548    70.699  0.003    
 523.900   180.858   3.417     7.545   5.820   2.610    70.715  -0.011   
 524.000   157.430   3.415     8.191   9.021   2.556    70.718  -0.012   
 524.100   162.116   3.415     6.925  12.975   2.488    70.706  -0.008   
 524.200   101.205   3.415     6.253  10.817   2.525    70.716  -0.017   
 524.300   152.745   3.416     6.380   8.234   2.569    70.708  -0.013   
 524.400   129.318   3.417     7.370   9.568   2.546    70.702  -0.013   
 524.500   162.116   3.420     7.802   9.717   2.544    70.708  -0.025   
 524.600   157.430   3.422     7.538   5.799   2.611    70.706  0.001    
 524.700   138.689   3.424     7.753  12.197   2.501    70.718  -0.008   
 524.800   157.430   3.425     6.991  10.775   2.526    70.712  0.012    
 524.900   124.632   3.424     7.254  10.684   2.527    70.728  -0.001   
 525.000   138.689   3.426     6.996  12.294   2.500    70.718  0.005    
 525.100   190.228   3.428     7.509   9.388   2.549    70.724  0.007    
 525.200    96.520   3.440     6.525   8.840   2.559    70.726  -0.014   
 525.300   204.285   3.441     6.271   8.426   2.566    70.715  -0.009   
 525.400   148.060   3.441     6.042  10.858   2.524    70.722  0.005    
 525.500   144.936   3.442     5.937   8.485   2.565    70.731  -0.004   
 525.600   194.914   3.443     6.309  13.288   2.483    70.716  0.007    
 525.700   124.632   3.442     7.029   4.532   2.633    70.720  0.009    
 525.800   162.116   3.444     5.877   9.041   2.555    70.716  0.011    
 525.900   119.947   3.443     5.705   7.980   2.574    70.719  0.004    
 526.000   119.947   3.444     5.979   8.066   2.572    70.719  0.001    
 526.100   129.318   3.446     5.829   3.927   2.643    70.719  0.018    
 526.200   143.374   3.446     5.748   6.820   2.593    70.729  0.013    
 526.300   180.858   3.444     5.853   7.741   2.578    70.731  0.016    
 526.400    87.149   3.444     5.642   4.783   2.628    70.726  0.008    
 526.500   171.487   3.445     5.722   9.521   2.547    70.720  -0.007   
 526.600   171.487   3.444     6.070  10.901   2.524    70.714  -0.005   
 526.700   190.228   3.444     5.453   8.711   2.561    70.707  -0.008   
 526.800   185.543   3.444     5.474  13.148   2.485    70.708  0.004    
 526.900   180.858   3.446     5.561   5.358   2.618    70.715  0.013    
 527.000   208.970   3.445     5.988   6.137   2.605    70.718  0.005    
 527.100    96.520   3.445     6.112  10.638   2.528    70.711  0.008    
 527.200   194.914   3.448     5.841   9.669   2.545    70.718  0.001    
 527.300   185.543   3.447     5.853   9.209   2.553    70.710  0.009    
 527.400   166.801   3.446     5.817  14.652   2.459    70.712  0.013    
 527.500   176.172   3.447     5.663   3.352   2.653    70.720  0.014    
 527.600   138.689   3.445     5.792  10.161   2.536    70.712  0.016    
 527.700   138.689   3.444     6.118   7.218   2.587    70.716  0.012    
 527.800   152.745   3.444     5.347   4.982   2.625    70.711  0.007    
 527.900   134.003   3.446     5.263   9.342   2.550    70.704  0.016    
 528.000   152.745   3.447     5.192  14.821   2.457    70.706  0.024    
 528.100   152.745   3.447     5.163  12.640   2.494    70.710  0.009    
 528.200   110.576   3.448     5.159   5.291   2.620    70.708  0.016    
 528.300   157.430   3.447     5.592  12.430   2.497    70.703  0.021    
 528.400   162.116   3.446     5.370   7.045   2.590    70.707  0.001    
 528.500   115.262   3.444     5.073  11.070   2.521    70.698  -0.007   
 528.600    87.149   3.441     5.179   7.705   2.578    70.700  -0.013   
 528.700   101.205   3.442     5.010   9.177   2.553    70.699  -0.013   
 528.800   151.183   3.446     4.968  13.111   2.486    70.698  -0.026   
 528.900   148.060   3.446     4.900  10.897   2.524    70.690  -0.030   
 529.000   148.060   3.448     4.926   9.728   2.544    70.686  -0.017   
 529.100   166.801   3.455     4.989  11.759   2.509    70.699  -0.020   
 529.200   166.801   3.459     5.444   9.442   2.549    70.687  -0.030   
 529.300   162.116   3.448     5.931  10.542   2.530    70.686  -0.022   
 529.400   157.430   3.441     5.466   5.936   2.608    70.697  -0.008   
