~Version Information
 VERS.                2.0:  CWLS LOG ASCII STANDARD -VERSION 2.0
 WRAP.                 NO:  ONE LINE PER DEPTH STEP
~WELL INFORMATION BLOCK
#MNEM.UNIT       DATA		            DESCRIPTION OF MNEMONIC
#---------    -------------            ------------------------
 STRT.FT  12.700                         :START DEPTH
 STOP.FT  552.200                        :STOP DEPTH
 STEP.FT  0.100                          :STEP    UP_HOLE  
 NULL.    -999.25                        :NULL VALUE
 COMP.                             usgs  :COMPANY
 WELL.   CL1                                                           :WELL
 FLD .                       Candy Lane  :FIELD
 LOC .  Lat 38.61717 Long 107.90174      :LOCATION
 CNTY.                         Montrose  :COUNTY
 STAT.                     CO            :STATE
 SRVC.           None                    :SERVICE COMPANY
 DATE.   11/10/2005                      :LOG DATE
 API .                                   :API NUMBER
 LIC .                                   :LICENSE NUMBER
~Curve Information Block
#MNEM.UNIT      API CODE     Curve Description
#---------    -------------  ------------------------
 DEPT     .FT        00 001 00 00          :  1  DEPTH   
 GAMMA    .CPS       00 310 00 00          :  2                GAMMA
 CALIPER  .INCH      00 280 00 00          :  3              CALIPER
~Parameter Information Block
#MNEM.UNIT   Information     Description
#---------- ---------------  ------------------------
 FILE.      ORIGINAL           :File Type
 FIID.      9074C              :File Type Identifier
 VERS.      3.58F              :System Version
 SER .      1                  :System Serial Number
 TRUK.      .601567            :Truck Calibration Number
 TOOL.         877             :Tool Serial Number
 TIME.      1245               :Time    HrHrMinMin
 LAT .                         :Latitude
 LON .                         :Longitude
 LMF .          None           :Log Measured From
 DMF .            GL           :Driller Measured From
 PD  .          None           :Permanent Data
 PDEV.          None           :Elevation Permanent Data
 EKB .M         None           :Elevation Kelly Bushing
 ELEV.DF         550           :Elevation DF
 EGL .M         None           :Elevation Ground Level
 DRDP.           550           :Driller's Depth
 CASD.       8.2               :Casing Diameter
 CASB.            20           :Casing Bottom
 CASX.         steel           :Casing Type
 CAST.         0               :Casing Thickness
 TNOC.          None           :Time Circulation Stopped
 LOGU.       None              :Logging Unit
 RECB.         bscorland       :Recorded By
 OSR1.          None           :Other Services
 OSR2.          None           :Other Services
 OSR3.          None           :Other Services
 BS  .MM       5.875           :Bit Size
 MST .                         :Mean Surface Temperature
 TGRD.        0                :Temperature Gradiant
 MAGN.             0           :Magnetic Declination
 MDEN.      2.71               :Density Matrix
 MATR.       Dolomite          :Neutron Matrix
 DTMT.            54           :Delta T Matrix
 DTFL.                         :Delta T Fluid
 MUDS.               0         :Mud Sample Source
 MRS .           0             :Mud Resistivity
 MTP .           0             :Mud Temperature
 MFRS.                         :Resistivity Mud Filtrate
 MFTP.                         :Temperature Mud Filtrate
 MCRS.         0               :Resistivity Mud Cake
 MCTP.                         :Temperature Mud Cake
 FTYP.             0           :Fluid Type
 FD  .K/M3                     :Fluid Density
 DFV .S                        :Fluid Viscosity
 FPH .                         :Fuild PH
 ELCO.        2500             :Electron Cutoff
~Other Information
#MNEM.UNIT  Information      Description
#---------- ---------------  ------------------------
# -------------------------- 
~A DEPTH  GAMMA     CALIPER 
# ...
  40.300   120.000   5.109  
  40.400   125.000   5.111  
  40.500   135.000   5.111  
  40.600   125.000   5.113  
  40.700   155.000   5.121  
  40.800   130.000   5.131  
  40.900   155.000   5.133  
  41.000   175.000   5.135  
  41.100   150.000   5.137  
  41.200   225.000   5.135  
  41.300   190.000   5.137  
  41.400   195.000   5.137  
  41.500   160.000   5.137  
  41.600   155.000   5.137  
  41.700   145.000   5.135  
  41.800   130.000   5.127  
  41.900   173.333   5.125  
  42.000   120.000   5.121  
  42.100   160.000   5.111  
  42.200   170.000   5.109  
  42.300   100.000   5.113  
  42.400   155.000   5.109  
  42.500   220.000   5.112  
  42.600   215.000   5.111  
  42.700   135.000   5.111  
  42.800   205.000   5.111  
  42.900   205.000   5.113  
  43.000   135.000   5.119  
  43.100   230.000   5.123  
  43.200   125.000   5.141  
  43.300   225.000   5.229  
  43.400   230.000   5.434  
  43.500   205.000   5.603  
  43.600   216.667   5.180  
  43.700   190.000   5.178  
  43.800   205.000   5.198  
  43.900   175.000   5.166  
  44.000   185.000   5.137  
  44.100   205.000   5.134  
  44.200   220.000   5.133  
  44.300   195.000   5.133  
  44.400   130.000   5.133  
  44.500   170.000   5.133  
  44.600   160.000   5.133  
  44.700   180.000   5.133  
  44.800   205.000   5.133  
  44.900   185.000   5.129  
  45.000   135.000   5.133  
  45.100   195.000   5.133  
  45.200   200.000   5.133  
  45.300   120.000   5.133  
  45.400   220.000   5.133  
  45.500   185.000   5.137  
  45.600   190.000   5.137  
  45.700   170.000   5.141  
  45.800   146.667   5.139  
  45.900   170.000   5.141  
  46.000   180.000   5.139  
  46.100   205.000   5.141  
  46.200   190.000   5.141  
  46.300   130.000   5.141  
  46.400   165.000   5.139  
  46.500   140.000   5.137  
  46.600   150.000   5.131  
  46.700   205.000   5.129  
  46.800   100.000   5.129  
  46.900   185.000   5.129  
  47.000   195.000   5.129  
  47.100   160.000   5.129  
  47.200   165.000   5.129  
  47.300   140.000   5.131  
  47.400   140.000   5.133  
  47.500   220.000   5.134  
  47.600   175.000   5.137  
  47.700   180.000   5.141  
  47.800   165.000   5.139  
  47.900   155.000   5.139  
  48.000   190.000   5.139  
  48.100   150.000   5.141  
  48.200   140.000   5.141  
  48.300   210.000   5.137  
  48.400   190.000   5.135  
  48.500   130.000   5.129  
  48.600   210.000   5.128  
  48.700   175.000   5.121  
  48.800   155.000   5.121  
  48.900   170.000   5.123  
  49.000   130.000   5.125  
  49.100   195.000   5.127  
  49.200   200.000   5.127  
  49.300   160.000   5.129  
  49.400   180.000   5.129  
  49.500   180.000   5.131  
  49.600   160.000   5.133  
  49.700   150.000   5.141  
  49.800   225.000   5.156  
  49.900   120.000   5.160  
  50.000   170.000   5.160  
  50.100   150.000   5.160  
  50.200   150.000   5.156  
  50.300   115.000   5.150  
  50.400   175.000   5.151  
  50.500   165.000   5.145  
  50.600   166.667   5.147  
  50.700   210.000   5.147  
  50.800   165.000   5.149  
  50.900   150.000   5.153  
  51.000   150.000   5.153  
  51.100   195.000   5.153  
  51.200   140.000   5.153  
  51.300   170.000   5.153  
  51.400   170.000   5.149  
  51.500   145.000   5.149  
  51.600    90.000   5.153  
  51.700   170.000   5.151  
  51.800    85.000   5.151  
  51.900   155.000   5.143  
  52.000   166.667   5.141  
  52.100   220.000   5.139  
  52.200   150.000   5.135  
  52.300   130.000   5.133  
  52.400   145.000   5.131  
  52.500   130.000   5.130  
  52.600   155.000   5.133  
  52.700   130.000   5.133  
  52.800   140.000   5.137  
  52.900   120.000   5.139  
  53.000   155.000   5.141  
  53.100   150.000   5.143  
  53.200   150.000   5.145  
  53.300   136.667   5.149  
  53.400   100.000   5.154  
  53.500   155.000   5.158  
  53.600   145.000   5.164  
  53.700   145.000   5.178  
  53.800   165.000   5.180  
  53.900   150.000   5.184  
  54.000   130.000   5.184  
  54.100   165.000   5.180  
  54.200   110.000   5.180  
  54.300   203.333   5.180  
  54.400   185.000   5.180  
  54.500   150.000   5.184  
  54.600   225.000   5.168  
  54.700   160.000   5.156  
  54.800   140.000   5.160  
  54.900   160.000   5.150  
  55.000   100.000   5.149  
  55.100   140.000   5.145  
  55.200   185.000   5.145  
  55.300   145.000   5.145  
  55.400   165.000   5.145  
  55.500   125.000   5.147  
  55.600   185.000   5.141  
  55.700   165.000   5.141  
  55.800   126.667   5.139  
  55.900   145.000   5.137  
  56.000   170.000   5.137  
  56.100   155.000   5.135  
  56.200   120.000   5.135  
  56.300   160.000   5.135  
  56.400    95.000   5.137  
  56.500   105.000   5.133  
  56.600   145.000   5.131  
  56.700   163.333   5.131  
  56.800   175.000   5.133  
  56.900   190.000   5.131  
  57.000   170.000   5.131  
  57.100   140.000   5.133  
  57.200   140.000   5.133  
  57.300   155.000   5.135  
  57.400   150.000   5.137  
  57.500   130.000   5.137  
  57.600   150.000   5.137  
  57.700   135.000   5.135  
  57.800   145.000   5.141  
  57.900   105.000   5.151  
  58.000   146.667   5.154  
  58.100   170.000   5.162  
  58.200   115.000   5.162  
  58.300   160.000   5.141  
  58.400   215.000   5.141  
  58.500   145.000   5.141  
  58.600   120.000   5.139  
  58.700   150.000   5.137  
  58.800   120.000   5.137  
  58.900   140.000   5.137  
  59.000   190.000   5.137  
  59.100   130.000   5.137  
  59.200   140.000   5.137  
  59.300   106.667   5.137  
  59.400   215.000   5.137  
  59.500   130.000   5.137  
  59.600   190.000   5.137  
  59.700   180.000   5.137  
  59.800   170.000   5.143  
  59.900   125.000   5.153  
  60.000   170.000   5.159  
  60.100   160.000   5.151  
  60.200    95.000   5.149  
  60.300   105.000   5.149  
  60.400   115.000   5.149  
  60.500   116.667   5.149  
  60.600   160.000   5.149  
  60.700   170.000   5.149  
  60.800   130.000   5.149  
  60.900   140.000   5.149  
  61.000   130.000   5.153  
  61.100   200.000   5.153  
  61.200   145.000   5.153  
  61.300   195.000   5.153  
  61.400   115.000   5.153  
  61.500   170.000   5.151  
  61.600   150.000   5.153  
  61.700   140.000   5.153  
  61.800   145.000   5.151  
  61.900   155.000   5.153  
  62.000   203.333   5.153  
  62.100   200.000   5.153  
  62.200   160.000   5.156  
  62.300   165.000   5.156  
  62.400   150.000   5.158  
  62.500   160.000   5.173  
  62.600   160.000   5.141  
  62.700   180.000   5.131  
  62.800   133.333   5.131  
  62.900   140.000   5.131  
  63.000   145.000   5.135  
  63.100   130.000   5.135  
  63.200   170.000   5.137  
  63.300   175.000   5.139  
  63.400   145.000   5.147  
  63.500   170.000   5.153  
  63.600   145.000   5.160  
  63.700   110.000   5.158  
  63.800   185.000   5.160  
  63.900   220.000   5.162  
  64.000   185.000   5.160  
  64.100   175.000   5.158  
  64.200   135.000   5.160  
  64.300   113.333   5.168  
  64.400   140.000   5.188  
  64.500   130.000   5.135  
  64.600   150.000   5.137  
  64.700   165.000   5.135  
  64.800   150.000   5.139  
  64.900   155.000   5.141  
  65.000   130.000   5.141  
  65.100   135.000   5.143  
  65.200    95.000   5.145  
  65.300   110.000   5.151  
  65.400   116.667   5.151  
  65.500   135.000   5.156  
  65.600   150.000   5.156  
  65.700   160.000   5.156  
  65.800   120.000   5.154  
  65.900   125.000   5.151  
  66.000   100.000   5.149  
  66.100   115.000   5.145  
  66.200   165.000   5.135  
  66.300   105.000   5.137  
  66.400   130.000   5.133  
  66.500   133.333   5.133  
  66.600   105.000   5.133  
  66.700   135.000   5.133  
  66.800   145.000   5.133  
  66.900   145.000   5.133  
  67.000   135.000   5.131  
  67.100   130.000   5.131  
  67.200   150.000   5.132  
  67.300   170.000   5.133  
  67.400   245.000   5.133  
  67.500   165.000   5.131  
  67.600   150.000   5.131  
  67.700   140.000   5.131  
  67.800   135.000   5.133  
