~Version Information
 VERS.                2.0:  CWLS LOG ASCII STANDARD -VERSION 2.0
 WRAP.                 NO:  ONE LINE PER DEPTH STEP
~WELL INFORMATION BLOCK
#MNEM.UNIT       DATA		            DESCRIPTION OF MNEMONIC
#---------    -------------            ------------------------
 STRT.FT  6.300                          :START DEPTH
 STOP.FT  557.000                        :STOP DEPTH
 STEP.FT  0.100                          :STEP    UP_HOLE  
 NULL.    -999.25                        :NULL VALUE
 COMP.                             usgs  :COMPANY
 WELL.   CL1                                                           :WELL
 FLD .                       Candy Lane  :FIELD
 LOC . Lat 38.61717 Long 107.90174       :LOCATION
 CNTY.                         Montrose  :COUNTY
 STAT.                     CO            :STATE
 SRVC.           None                    :SERVICE COMPANY
 DATE.   11/10/2005                      :LOG DATE
 API .                                   :API NUMBER
 LIC .                                   :LICENSE NUMBER
~Curve Information Block
#MNEM.UNIT      API CODE     Curve Description
#---------    -------------  ------------------------
 DEPT     .FT        00 001 00 00          :  1  DEPTH   
 GAMMA    .API-GR    00 310 00 00          :  2                GAMMA
 CALIPER  .INCH      00 280 00 00          :  3              CALIPER
 RES(SG)  .OHM-M     00 220 00 00          :  4              RES(SG)
 POR(DEN) .PERCENT   00 890 00 00          :  5             POR(DEN)
 DEN(CDL) .G/CC      00 350 00 00          :  6             DEN(CDL)
 TEMP     .DEG F     00 660 00 00          :  7                 TEMP
 DEL TEMP .DEG F     00 000 00 00          :  8             DEL TEMP
~Parameter Information Block
#MNEM.UNIT   Information     Description
#---------- ---------------  ------------------------
 FILE.      ORIGINAL           :File Type
 FIID.      9139A              :File Type Identifier
 VERS.      3.58F              :System Version
 SER .      1                  :System Serial Number
 TRUK.      .601567            :Truck Calibration Number
 TOOL.        1239             :Tool Serial Number
 TIME.      1635               :Time    HrHrMinMin
 LAT .                         :Latitude
 LON .                         :Longitude
 LMF .          None           :Log Measured From
 DMF .            GL           :Driller Measured From
 PD  .          None           :Permanent Data
 PDEV.          None           :Elevation Permanent Data
 EKB .M         None           :Elevation Kelly Bushing
 ELEV.DF         550           :Elevation DF
 EGL .M         None           :Elevation Ground Level
 DRDP.           550           :Driller's Depth
 CASD.       8.2               :Casing Diameter
 CASB.            20           :Casing Bottom
 CASX.         steel           :Casing Type
 CAST.         0               :Casing Thickness
 TNOC.          None           :Time Circulation Stopped
 LOGU.       None              :Logging Unit
 RECB.         bscorland       :Recorded By
 OSR1.          None           :Other Services
 OSR2.          None           :Other Services
 OSR3.          None           :Other Services
 BS  .MM       5.875           :Bit Size
 MST .                         :Mean Surface Temperature
 TGRD.        0                :Temperature Gradiant
 MAGN.             0           :Magnetic Declination
 MDEN.      2.71               :Density Matrix
 MATR.       Dolomite          :Neutron Matrix
 DTMT.            54           :Delta T Matrix
 DTFL.                         :Delta T Fluid
 MUDS.               0         :Mud Sample Source
 MRS .           0             :Mud Resistivity
 MTP .           0             :Mud Temperature
 MFRS.                         :Resistivity Mud Filtrate
 MFTP.                         :Temperature Mud Filtrate
 MCRS.         0               :Resistivity Mud Cake
 MCTP.                         :Temperature Mud Cake
 FTYP.             0           :Fluid Type
 FD  .K/M3                     :Fluid Density
 DFV .S                        :Fluid Viscosity
 FPH .                         :Fuild PH
 ELCO.        2500             :Electron Cutoff
~Other Information
#MNEM.UNIT  Information      Description
#---------- ---------------  ------------------------
# -------------------------- 
~A DEPTH  GAMMA     CALIPER RES(SG)   POR(DEN) DEN(CDL) TEMP    DEL TEMP 
# ...
  82.600    85.743   3.412  2500.000   6.674   2.596    55.033  0.001    
  82.700    93.709   3.411  2500.000   5.845   2.610    55.039  -0.011   
  82.800    57.865   3.412  2500.000   4.196   2.638    55.027  0.010    
  82.900    97.691   3.411  2500.000   4.292   2.637    55.038  0.019    
  83.000    97.691   3.412  2500.000   7.790   2.577    55.043  -0.001   
  83.100    93.709   3.413  2500.000   6.961   2.591    55.038  0.008    
  83.200    89.726   3.412  2500.000   3.954   2.642    55.030  0.012    
  83.300    33.969   3.412  2500.000   7.635   2.579    55.034  0.014    
  83.400    61.848   3.413  2500.000   5.705   2.612    55.039  -0.008   
  83.500   106.984   3.414  2500.000  -1.443   2.735    55.027  0.022    
  83.600    85.743   3.416  2500.000   5.127   2.622    55.038  0.022    
  83.700    85.743   3.419  2500.000   3.294   2.654    55.038  0.012    
  83.800    85.743   3.422  2500.000   3.402   2.652    55.028  -0.001   
  83.900    81.761   3.426  2500.000   3.151   2.656    55.024  0.023    
  84.000   101.674   3.428  2500.000   6.863   2.593    55.039  -0.003   
  84.100    77.778   3.429  2500.000   6.385   2.601    55.022  -0.003   
  84.200   101.205   3.429  2500.000   0.396   2.703    55.022  0.002    
  84.300   101.205   3.430  2500.000   3.809   2.645    55.026  -0.005   
  84.400    96.520   3.432  2322.153   1.135   2.691    55.035  -0.001   
  84.500    82.464   3.435    37.146   2.204   2.672    55.016  -0.015   
  84.600   101.205   3.435    16.730   5.506   2.616    55.016  0.003    
  84.700    87.149   3.437    18.660   1.363   2.687    55.016  -0.004   
  84.800   124.632   3.436    20.544  -0.452   2.718    55.026  -0.007   
  84.900    68.407   3.436    21.759   0.881   2.695    55.016  0.004    
  85.000    63.722   3.436    22.432  -2.300   2.749    55.024  0.000    
  85.100    73.093   3.436    23.041   0.110   2.708    55.024  0.003    
  85.200    91.834   3.436    23.993   3.253   2.654    55.023  0.016    
  85.300    96.520   3.434    24.510   0.714   2.698    55.041  -0.004   
  85.400   101.205   3.430    24.381   1.712   2.681    55.017  0.021    
  85.500   119.947   3.427    24.991   1.814   2.679    55.031  -0.011   
  85.600   143.374   3.421    25.481   2.595   2.666    55.013  0.008    
  85.700   115.262   3.417    25.361   1.686   2.681    55.030  0.012    
  85.800   119.947   3.415    25.068   0.676   2.698    55.023  -0.007   
  85.900   110.576   3.413    25.235   2.708   2.664    55.020  0.003    
  86.000   119.947   3.412    26.821  -0.101   2.712    55.024  -0.001   
  86.100   157.430   3.411    27.247   4.492   2.633    55.020  0.005    
  86.200   110.576   3.411    28.001   1.255   2.689    55.024  -0.008   
  86.300   138.689   3.411    27.983   2.465   2.668    55.022  -0.003   
  86.400    59.036   3.411    28.305  -0.206   2.714    55.011  0.001    
  86.500    82.464   3.411    28.223   2.295   2.671    55.024  0.004    
  86.600   101.205   3.410    27.549   7.177   2.587    55.022  0.000    
  86.700    87.149   3.411    27.332   4.389   2.635    55.011  -0.004   
  86.800   143.374   3.411    27.158   1.408   2.686    55.027  0.007    
  86.900    91.834   3.411    27.112   1.212   2.689    55.022  0.000    
  87.000    63.722   3.410    27.108  -3.488   2.770    55.022  -0.008   
  87.100    68.407   3.410    27.066  -0.242   2.714    55.019  0.005    
  87.200    77.778   3.410    26.994   1.642   2.682    55.030  -0.014   
  87.300   101.205   3.409    27.001   2.717   2.664    55.013  -0.004   
  87.400   129.318   3.405    27.150   1.714   2.681    55.023  -0.010   
  87.500   105.891   3.399    27.893  -3.720   2.774    55.017  -0.014   
  87.600   110.576   3.397    28.191  -4.560   2.788    55.011  0.008    
  87.700   115.262   3.398    28.565  -5.127   2.798    55.031  -0.008   
  87.800   101.205   3.396    29.119   2.529   2.667    55.015  0.003    
  87.900    96.520   3.398    30.222   0.092   2.708    55.022  0.005    
  88.000   110.576   3.404    32.060   2.359   2.670    55.027  0.004    
  88.100    68.407   3.408    33.796   5.575   2.615    55.024  0.019    
  88.200    49.666   3.410    34.212   3.870   2.644    55.027  -0.005   
  88.300    77.778   3.410    33.251   3.538   2.649    55.027  -0.004   
  88.400    68.407   3.413    31.747  -4.567   2.788    55.027  0.001    
  88.500    63.722   3.415    29.996  -1.443   2.735    55.024  0.001    
  88.600    96.520   3.417    28.344  -7.171   2.833    55.023  -0.004   
  88.700   105.891   3.418    27.398  -2.299   2.749    55.023  -0.015   
  88.800   105.891   3.419    26.993  -3.104   2.763    55.019  -0.005   
  88.900    59.036   3.421    25.681  -0.409   2.717    55.022  -0.008   
  89.000    59.036   3.423    24.585   1.153   2.690    55.020  -0.027   
  89.100    87.149   3.424    24.486  -1.600   2.737    55.008  0.010    
  89.200    87.149   3.422    24.543   0.498   2.701    55.033  0.004    
  89.300   110.576   3.423    24.459   2.398   2.669    55.031  0.000    
  89.400   110.576   3.421    24.595   4.401   2.635    55.023  -0.001   
  89.500   152.745   3.422    24.562  -2.986   2.761    55.022  0.004    
  89.600    82.464   3.419    24.564  -1.567   2.737    55.027  -0.003   
  89.700   105.891   3.414    24.702  -0.156   2.713    55.034  -0.001   
  89.800    77.778   3.415    24.597  -0.075   2.711    55.027  0.007    
  89.900   110.576   3.413    24.543   6.830   2.593    55.028  0.007    
  90.000    91.834   3.413    24.543   2.424   2.669    55.035  -0.014   
  90.100   115.262   3.410    24.757  -4.553   2.788    55.023  -0.001   
  90.200    54.351   3.409    27.349   3.601   2.648    55.027  -0.007   
  90.300   148.060   3.409    28.901   5.542   2.615    55.023  -0.008   
  90.400   124.632   3.409    31.012   6.934   2.591    55.023  0.005    
  90.500   124.632   3.408    33.180   3.223   2.655    55.023  0.014    
  90.600   115.262   3.409    35.427   0.939   2.694    55.037  -0.012   
  90.700   124.632   3.409    38.312  -0.896   2.725    55.028  0.001    
  90.800   138.689   3.413    39.754   2.357   2.670    55.022  0.005    
  90.900    91.834   3.422    40.757   1.570   2.683    55.028  0.015    
  91.000    68.407   3.428    40.130   2.796   2.662    55.037  0.001    
  91.100    77.778   3.424    38.694   4.390   2.635    55.028  0.003    
  91.200    68.407   3.417    37.833   1.305   2.688    55.030  0.007    
  91.300   110.576   3.415    36.812  -0.466   2.718    55.031  -0.007   
  91.400   101.205   3.415    34.327   0.032   2.709    55.017  -0.026   
  91.500    96.520   3.420    32.756   0.400   2.703    55.023  0.010    
  91.600   143.374   3.419    31.792   3.071   2.657    55.041  -0.019   
  91.700   110.576   3.425    29.973  -0.167   2.713    55.020  0.000    
  91.800    96.520   3.429    28.389   2.356   2.670    55.023  -0.011   
  91.900   105.891   3.420    27.388   2.068   2.675    55.022  -0.004   
  92.000    63.722   3.425    26.973   4.095   2.640    55.027  -0.016   
  92.100    91.834   3.427    26.497   2.411   2.669    55.027  0.000    
  92.200   143.374   3.429    26.563   4.191   2.638    55.024  0.000    
  92.300   119.947   3.429    26.337   0.256   2.706    55.024  0.018    
  92.400    96.520   3.430    25.136   6.398   2.601    55.049  -0.011   
  92.500    68.407   3.430    23.620   3.190   2.655    55.031  0.004    
  92.600    87.149   3.430    23.363   2.887   2.661    55.039  -0.008   
  92.700   110.576   3.430    23.266   0.246   2.706    55.023  -0.012   
  92.800   119.947   3.430    23.245  -2.233   2.748    55.033  -0.007   
  92.900    91.834   3.431    23.193  -2.654   2.755    55.031  0.007    
  93.000   204.285   3.435    22.303  -2.023   2.745    55.043  -0.010   
  93.100   110.576   3.433    22.805   0.653   2.699    55.024  -0.016   
  93.200   101.205   3.432    23.110   2.815   2.662    55.024  0.003    
  93.300   105.891   3.433    23.122  -5.410   2.803    55.031  0.008    
  93.400   115.262   3.432    23.392   1.546   2.684    55.042  -0.005   
