~Version Information
 VERS.                2.0:  CWLS LOG ASCII STANDARD -VERSION 2.0
 WRAP.                 NO:  ONE LINE PER DEPTH STEP
~WELL INFORMATION BLOCK
#MNEM.UNIT       DATA		            DESCRIPTION OF MNEMONIC
#---------    -------------            ------------------------
 STRT.FT  12.700                         :START DEPTH
 STOP.FT  552.200                        :STOP DEPTH
 STEP.FT  0.100                          :STEP    UP_HOLE  
 NULL.    -999.25                        :NULL VALUE
 COMP.                             usgs  :COMPANY
 WELL.   CL1                                                           :WELL
 FLD .                       Candy Lane  :FIELD
 LOC .  Lat 38.61717 Long 107.90174      :LOCATION
 CNTY.                         Montrose  :COUNTY
 STAT.                     CO            :STATE
 SRVC.           None                    :SERVICE COMPANY
 DATE.   11/10/2005                      :LOG DATE
 API .                                   :API NUMBER
 LIC .                                   :LICENSE NUMBER
~Curve Information Block
#MNEM.UNIT      API CODE     Curve Description
#---------    -------------  ------------------------
 DEPT     .FT        00 001 00 00          :  1  DEPTH   
 GAMMA    .CPS       00 310 00 00          :  2                GAMMA
 CALIPER  .INCH      00 280 00 00          :  3              CALIPER
~Parameter Information Block
#MNEM.UNIT   Information     Description
#---------- ---------------  ------------------------
 FILE.      ORIGINAL           :File Type
 FIID.      9074C              :File Type Identifier
 VERS.      3.58F              :System Version
 SER .      1                  :System Serial Number
 TRUK.      .601567            :Truck Calibration Number
 TOOL.         877             :Tool Serial Number
 TIME.      1245               :Time    HrHrMinMin
 LAT .                         :Latitude
 LON .                         :Longitude
 LMF .          None           :Log Measured From
 DMF .            GL           :Driller Measured From
 PD  .          None           :Permanent Data
 PDEV.          None           :Elevation Permanent Data
 EKB .M         None           :Elevation Kelly Bushing
 ELEV.DF         550           :Elevation DF
 EGL .M         None           :Elevation Ground Level
 DRDP.           550           :Driller's Depth
 CASD.       8.2               :Casing Diameter
 CASB.            20           :Casing Bottom
 CASX.         steel           :Casing Type
 CAST.         0               :Casing Thickness
 TNOC.          None           :Time Circulation Stopped
 LOGU.       None              :Logging Unit
 RECB.         bscorland       :Recorded By
 OSR1.          None           :Other Services
 OSR2.          None           :Other Services
 OSR3.          None           :Other Services
 BS  .MM       5.875           :Bit Size
 MST .                         :Mean Surface Temperature
 TGRD.        0                :Temperature Gradiant
 MAGN.             0           :Magnetic Declination
 MDEN.      2.71               :Density Matrix
 MATR.       Dolomite          :Neutron Matrix
 DTMT.            54           :Delta T Matrix
 DTFL.                         :Delta T Fluid
 MUDS.               0         :Mud Sample Source
 MRS .           0             :Mud Resistivity
 MTP .           0             :Mud Temperature
 MFRS.                         :Resistivity Mud Filtrate
 MFTP.                         :Temperature Mud Filtrate
 MCRS.         0               :Resistivity Mud Cake
 MCTP.                         :Temperature Mud Cake
 FTYP.             0           :Fluid Type
 FD  .K/M3                     :Fluid Density
 DFV .S                        :Fluid Viscosity
 FPH .                         :Fuild PH
 ELCO.        2500             :Electron Cutoff
~Other Information
#MNEM.UNIT  Information      Description
#---------- ---------------  ------------------------
# -------------------------- 
~A DEPTH  GAMMA     CALIPER 
# ...
 288.700   190.000   5.086  
 288.800   240.000   5.082  
 288.900   150.000   5.080  
 289.000   195.000   5.078  
 289.100   195.000   5.078  
 289.200   155.000   5.076  
 289.300   205.000   5.078  
 289.400   146.667   5.080  
 289.500   245.000   5.088  
 289.600   180.000   5.090  
 289.700   170.000   5.088  
 289.800   165.000   5.090  
 289.900   130.000   5.090  
 290.000   145.000   5.092  
 290.100   150.000   5.094  
 290.200   180.000   5.094  
 290.300   155.000   5.094  
 290.400   170.000   5.088  
 290.500   170.000   5.086  
 290.600   200.000   5.086  
 290.700   190.000   5.084  
 290.800   155.000   5.084  
 290.900   160.000   5.084  
 291.000   175.000   5.084  
 291.100   205.000   5.088  
 291.200   140.000   5.086  
 291.300   156.667   5.074  
 291.400   165.000   5.076  
 291.500   145.000   5.080  
 291.600   200.000   5.082  
 291.700   130.000   5.084  
 291.800   215.000   5.084  
 291.900   170.000   5.086  
 292.000   230.000   5.084  
 292.100   170.000   5.086  
 292.200   185.000   5.086  
 292.300   215.000   5.088  
 292.400   176.667   5.082  
 292.500   180.000   5.078  
 292.600   180.000   5.080  
 292.700   175.000   5.076  
 292.800   195.000   5.076  
 292.900   155.000   5.076  
 293.000   230.000   5.078  
 293.100   195.000   5.078  
 293.200   175.000   5.084  
 293.300   200.000   5.090  
 293.400   225.000   5.090  
 293.500   206.667   5.094  
 293.600   140.000   5.090  
 293.700   225.000   5.094  
 293.800   205.000   5.092  
 293.900   170.000   5.092  
 294.000   195.000   5.092  
 294.100   185.000   5.088  
 294.200   160.000   5.084  
 294.300   220.000   5.080  
 294.400   180.000   5.082  
 294.500   235.000   5.080  
 294.600   160.000   5.082  
 294.700   200.000   5.078  
 294.800   200.000   5.080  
 294.900   190.000   5.082  
 295.000   190.000   5.078  
 295.100   240.000   5.078  
 295.200   145.000   5.076  
 295.300   186.667   5.076  
 295.400   245.000   5.078  
 295.500   205.000   5.074  
 295.600   225.000   5.076  
 295.700   145.000   5.076  
 295.800   150.000   5.080  
 295.900   155.000   5.080  
 296.000   175.000   5.078  
 296.100   140.000   5.076  
 296.200   135.000   5.074  
 296.300   203.333   5.076  
 296.400   120.000   5.078  
 296.500   165.000   5.076  
 296.600   175.000   5.074  
 296.700   150.000   5.076  
 296.800   205.000   5.080  
 296.900   130.000   5.078  
 297.000   185.000   5.088  
 297.100   165.000   5.090  
 297.200   180.000   5.094  
 297.300   195.000   5.097  
 297.400   110.000   5.105  
 297.500   170.000   5.094  
 297.600   135.000   5.088  
 297.700   190.000   5.103  
 297.800   200.000   5.105  
 297.900   185.000   5.105  
 298.000   190.000   5.104  
 298.100   180.000   5.092  
 298.200   160.000   5.090  
 298.300   120.000   5.088  
 298.400   160.000   5.090  
 298.500   125.000   5.090  
 298.600   175.000   5.088  
 298.700   135.000   5.090  
 298.800   170.000   5.082  
 298.900   160.000   5.084  
 299.000   175.000   5.078  
 299.100   176.667   5.080  
 299.200   200.000   5.090  
 299.300   145.000   5.090  
 299.400   140.000   5.064  
 299.500   205.000   5.084  
 299.600   200.000   5.088  
 299.700   180.000   5.088  
 299.800   180.000   5.095  
 299.900   210.000   5.101  
 300.000   250.000   5.133  
 300.100   250.000   5.245  
 300.200   270.000   5.350  
 300.300   243.333   5.088  
 300.400   165.000   5.086  
 300.500   210.000   5.086  
 300.600   245.000   5.086  
 300.700   200.000   5.088  
 300.800   190.000   5.088  
 300.900   165.000   5.086  
 301.000   205.000   5.086  
 301.100   173.333   5.082  
 301.200   175.000   5.086  
 301.300   200.000   5.088  
 301.400   195.000   5.092  
 301.500   205.000   5.090  
 301.600   185.000   5.082  
 301.700   165.000   5.086  
 301.800   185.000   5.082  
 301.900   170.000   5.084  
 302.000   180.000   5.078  
 302.100   150.000   5.074  
 302.200   180.000   5.074  
 302.300   245.000   5.082  
 302.400   150.000   5.082  
 302.500   205.000   5.086  
 302.600   130.000   5.088  
 302.700   140.000   5.090  
 302.800   175.000   5.094  
 302.900   165.000   5.092  
 303.000   195.000   5.078  
 303.100   185.000   5.086  
 303.200   195.000   5.084  
 303.300   190.000   5.084  
 303.400   190.000   5.086  
 303.500   165.000   5.090  
 303.600   175.000   5.088  
 303.700   210.000   5.088  
 303.800   190.000   5.090  
 303.900   140.000   5.090  
 304.000   165.000   5.094  
 304.100   186.667   5.090  
 304.200   185.000   5.092  
 304.300   200.000   5.092  
 304.400   120.000   5.094  
 304.500   190.000   5.090  
 304.600   135.000   5.094  
 304.700   180.000   5.121  
 304.800   220.000   5.092  
 304.900   150.000   5.092  
 305.000   173.333   5.094  
 305.100   200.000   5.092  
 305.200   235.000   5.094  
 305.300   155.000   5.092  
 305.400   150.000   5.094  
 305.500   205.000   5.094  
 305.600   195.000   5.094  
 305.700   183.333   5.094  
 305.800   160.000   5.092  
 305.900   180.000   5.090  
 306.000   195.000   5.094  
 306.100   185.000   5.094  
 306.200   175.000   5.092  
 306.300   143.333   5.090  
 306.400   190.000   5.101  
 306.500   240.000   5.090  
 306.600   145.000   5.084  
 306.700   205.000   5.086  
 306.800   155.000   5.086  
 306.900   175.000   5.084  
 307.000   265.000   5.079  
 307.100   170.000   5.080  
 307.200   180.000   5.078  
 307.300   160.000   5.082  
 307.400   200.000   5.078  
 307.500   200.000   5.080  
 307.600   205.000   5.082  
 307.700   165.000   5.082  
 307.800   170.000   5.078  
 307.900   130.000   5.078  
 308.000   180.000   5.078  
 308.100   195.000   5.078  
 308.200   215.000   5.076  
 308.300   210.000   5.074  
 308.400   130.000   5.088  
 308.500   170.000   5.086  
 308.600   200.000   5.060  
 308.700   150.000   5.078  
 308.800   220.000   5.086  
 308.900   175.000   5.088  
 309.000   155.000   5.080  
 309.100   230.000   5.082  
 309.200   150.000   5.082  
 309.300   163.333   5.095  
 309.400   160.000   5.107  
 309.500   180.000   5.115  
 309.600   165.000   5.107  
 309.700   120.000   5.086  
 309.800   160.000   5.074  
 309.900   180.000   5.086  
 310.000   215.000   5.082  
 310.100   203.333   5.082  
 310.200   230.000   5.080  
 310.300   210.000   5.082  
 310.400   205.000   5.078  
 310.500   190.000   5.082  
 310.600   140.000   5.074  
 310.700   165.000   5.078  
 310.800   115.000   5.078  
 310.900   146.667   5.070  
 311.000   185.000   5.076  
 311.100   150.000   5.076  
 311.200   145.000   5.076  
 311.300   175.000   5.072  
 311.400   165.000   5.074  
 311.500   135.000   5.080  
 311.600   155.000   5.072  
 311.700   173.333   5.066  
 311.800   200.000   5.076  
 311.900   150.000   5.162  
 312.000   165.000   5.109  
 312.100   175.000   5.082  
 312.200   170.000   5.078  
 312.300   183.333   5.074  
 312.400   205.000   5.070  
 312.500   180.000   5.080  
 312.600   250.000   5.082  
 312.700   235.000   5.080  
 312.800   195.000   5.078  
 312.900   225.000   5.072  
 313.000   130.000   5.075  
 313.100   260.000   5.074  
 313.200   155.000   5.080  
 313.300   185.000   5.076  
 313.400   120.000   5.060  
 313.500   145.000   5.062  
 313.600   170.000   5.062  
 313.700   220.000   5.068  
 313.800   280.000   5.078  
 313.900   236.667   5.080  
 314.000   170.000   5.084  
 314.100   180.000   5.084  
 314.200   185.000   5.082  
 314.300   205.000   5.086  
 314.400   225.000   5.074  
 314.500   230.000   5.072  
 314.600   170.000   5.084  
 314.700   213.333   5.088  
 314.800   165.000   5.088  
 314.900   225.000   5.068  
 315.000   205.000   5.072  
 315.100   190.000   5.076  
 315.200   185.000   5.054  
 315.300   196.667   5.076  
 315.400   225.000   5.086  
 315.500   225.000   5.076  
 315.600   160.000   5.074  
 315.700   220.000   5.086  
 315.800   215.000   5.078  
 315.900   265.000   5.084  
 316.000   235.000   5.070  
 316.100   220.000   5.070  
 316.200   245.000   5.072  
