~Version Information
 VERS.                2.0:  CWLS LOG ASCII STANDARD -VERSION 2.0
 WRAP.                 NO:  ONE LINE PER DEPTH STEP
~WELL INFORMATION BLOCK
#MNEM.UNIT       DATA		            DESCRIPTION OF MNEMONIC
#---------    -------------            ------------------------
 STRT.FT  6.300                          :START DEPTH
 STOP.FT  557.000                        :STOP DEPTH
 STEP.FT  0.100                          :STEP    UP_HOLE  
 NULL.    -999.25                        :NULL VALUE
 COMP.                             usgs  :COMPANY
 WELL.   CL1                                                           :WELL
 FLD .                       Candy Lane  :FIELD
 LOC . Lat 38.61717 Long 107.90174       :LOCATION
 CNTY.                         Montrose  :COUNTY
 STAT.                     CO            :STATE
 SRVC.           None                    :SERVICE COMPANY
 DATE.   11/10/2005                      :LOG DATE
 API .                                   :API NUMBER
 LIC .                                   :LICENSE NUMBER
~Curve Information Block
#MNEM.UNIT      API CODE     Curve Description
#---------    -------------  ------------------------
 DEPT     .FT        00 001 00 00          :  1  DEPTH   
 GAMMA    .API-GR    00 310 00 00          :  2                GAMMA
 CALIPER  .INCH      00 280 00 00          :  3              CALIPER
 RES(SG)  .OHM-M     00 220 00 00          :  4              RES(SG)
 POR(DEN) .PERCENT   00 890 00 00          :  5             POR(DEN)
 DEN(CDL) .G/CC      00 350 00 00          :  6             DEN(CDL)
 TEMP     .DEG F     00 660 00 00          :  7                 TEMP
 DEL TEMP .DEG F     00 000 00 00          :  8             DEL TEMP
~Parameter Information Block
#MNEM.UNIT   Information     Description
#---------- ---------------  ------------------------
 FILE.      ORIGINAL           :File Type
 FIID.      9139A              :File Type Identifier
 VERS.      3.58F              :System Version
 SER .      1                  :System Serial Number
 TRUK.      .601567            :Truck Calibration Number
 TOOL.        1239             :Tool Serial Number
 TIME.      1635               :Time    HrHrMinMin
 LAT .                         :Latitude
 LON .                         :Longitude
 LMF .          None           :Log Measured From
 DMF .            GL           :Driller Measured From
 PD  .          None           :Permanent Data
 PDEV.          None           :Elevation Permanent Data
 EKB .M         None           :Elevation Kelly Bushing
 ELEV.DF         550           :Elevation DF
 EGL .M         None           :Elevation Ground Level
 DRDP.           550           :Driller's Depth
 CASD.       8.2               :Casing Diameter
 CASB.            20           :Casing Bottom
 CASX.         steel           :Casing Type
 CAST.         0               :Casing Thickness
 TNOC.          None           :Time Circulation Stopped
 LOGU.       None              :Logging Unit
 RECB.         bscorland       :Recorded By
 OSR1.          None           :Other Services
 OSR2.          None           :Other Services
 OSR3.          None           :Other Services
 BS  .MM       5.875           :Bit Size
 MST .                         :Mean Surface Temperature
 TGRD.        0                :Temperature Gradiant
 MAGN.             0           :Magnetic Declination
 MDEN.      2.71               :Density Matrix
 MATR.       Dolomite          :Neutron Matrix
 DTMT.            54           :Delta T Matrix
 DTFL.                         :Delta T Fluid
 MUDS.               0         :Mud Sample Source
 MRS .           0             :Mud Resistivity
 MTP .           0             :Mud Temperature
 MFRS.                         :Resistivity Mud Filtrate
 MFTP.                         :Temperature Mud Filtrate
 MCRS.         0               :Resistivity Mud Cake
 MCTP.                         :Temperature Mud Cake
 FTYP.             0           :Fluid Type
 FD  .K/M3                     :Fluid Density
 DFV .S                        :Fluid Viscosity
 FPH .                         :Fuild PH
 ELCO.        2500             :Electron Cutoff
~Other Information
#MNEM.UNIT  Information      Description
#---------- ---------------  ------------------------
# -------------------------- 
~A DEPTH  GAMMA     CALIPER RES(SG)   POR(DEN) DEN(CDL) TEMP    DEL TEMP 
# ...
 333.300   190.228   3.463     9.228  11.899   2.507    65.336  -0.120   
 333.400   232.397   3.438     9.013  11.245   2.518    65.339  -0.109   
 333.500   166.801   3.419     9.499   7.497   2.582    65.363  -0.099   
 333.600   218.341   3.434     9.407   5.650   2.613    65.371  -0.091   
 333.700   223.026   3.431     9.085   8.506   2.565    65.382  -0.064   
 333.800   251.139   3.415     9.450   0.639   2.699    65.406  -0.077   
 333.900   190.228   3.413    12.191  10.572   2.529    65.414  -0.107   
 334.000   180.858   3.441    22.186   6.678   2.596    65.419  -0.077   
 334.100   166.801   3.451    20.989   3.548   2.649    65.446  -0.112   
 334.200   152.745   3.449    12.204   4.593   2.631    65.430  -0.075   
 334.300   180.858   3.446    10.434   7.133   2.588    65.459  -0.075   
 334.400   199.599   3.441    11.367   9.124   2.554    65.472  -0.093   
 334.500   129.318   3.438    12.206   5.186   2.621    65.470  -0.099   
 334.600   190.228   3.434    11.216   7.262   2.586    65.472  -0.109   
 334.700   166.801   3.437     9.295   6.037   2.607    65.470  -0.091   
 334.800   176.172   3.439     8.977   4.284   2.637    65.491  -0.059   
 334.900   134.003   3.440     8.953   8.364   2.567    65.526  -0.085   
 335.000   148.060   3.444     8.977   7.433   2.583    65.523  -0.064   
 335.100   185.543   3.451     8.743  10.339   2.533    65.542  -0.077   
 335.200   185.543   3.452     8.922  10.511   2.530    65.534  -0.059   
 335.300   143.374   3.448     9.258   6.878   2.592    65.547  -0.045   
 335.400   176.172   3.442     9.561   3.491   2.650    65.563  -0.083   
 335.500   119.947   3.441     9.965   7.005   2.590    65.571  -0.061   
 335.600   143.374   3.425     9.169  11.537   2.513    65.579  -0.072   
 335.700   143.374   3.420     8.387   8.164   2.570    65.582  -0.080   
 335.800   148.060   3.417     7.790  13.606   2.477    65.584  -0.059   
 335.900   134.003   3.417     9.383  12.341   2.499    65.608  -0.083   
 336.000   180.858   3.414     9.405   5.728   2.612    65.606  -0.088   
 336.100   138.689   3.415    10.942   9.502   2.548    65.611  -0.077   
 336.200   213.656   3.413    11.179   5.435   2.617    65.606  -0.083   
 336.300   138.689   3.414     9.685   6.703   2.595    65.608  -0.037   
 336.400   227.712   3.416     9.525  10.260   2.535    65.653  -0.053   
 336.500   152.745   3.417     9.124   7.708   2.578    65.640  -0.059   
 336.600   199.599   3.418     8.847  11.098   2.520    65.653  -0.037   
 336.700   208.970   3.412     9.279  11.902   2.506    65.664  -0.040   
 336.800   152.745   3.413    10.978   5.139   2.622    65.667  -0.024   
 336.900   148.060   3.411    12.284   6.504   2.599    65.688  -0.012   
 337.000   194.914   3.410    12.988  10.310   2.534    65.699  -0.022   
 337.100   185.543   3.409    14.379   2.434   2.668    65.683  -0.026   
 337.200   134.003   3.405    13.073   2.495   2.667    65.691  -0.046   
 337.300   124.632   3.391    10.215   4.686   2.630    65.691  -0.029   
 337.400   180.858   3.398     9.634   2.636   2.665    65.693  -0.020   
 337.500   208.970   3.386    10.942   4.471   2.634    65.712  -0.033   
 337.600   208.970   3.366    10.744  12.187   2.502    65.701  -0.028   
 337.700   237.083   3.364     9.643  11.069   2.521    65.707  -0.042   
 337.800   176.172   3.359     9.570   3.684   2.647    65.712  -0.032   
 337.900   185.543   3.366     9.531  12.273   2.500    65.711  -0.046   
 338.000   218.341   3.375     9.443  10.607   2.529    65.705  -0.043   
 338.100   152.745   3.377     9.424   7.119   2.588    65.717  -0.029   
 338.200   251.139   3.388     9.222  11.997   2.505    65.737  -0.053   
 338.300   213.656   3.382     9.156  15.159   2.451    65.722  -0.041   
 338.400   162.116   3.386     9.505   4.829   2.627    65.732  -0.047   
 338.500   180.858   3.398     9.561   6.136   2.605    65.734  -0.042   
 338.600   199.599   3.406     9.249   9.143   2.554    65.734  -0.032   
 338.700   176.172   3.412     9.331   9.243   2.552    65.754  -0.051   
 338.800   162.116   3.420     8.902  10.654   2.528    65.742  -0.034   
 338.900   194.914   3.432     8.874  10.553   2.530    65.751  -0.030   
 339.000   166.801   3.418     8.859  14.160   2.468    65.761  -0.029   
 339.100   166.801   3.413     8.713  16.870   2.422    65.766  -0.026   
 339.200   190.228   3.389     9.034  11.261   2.517    65.775  -0.037   
 339.300   110.576   3.392    10.283   7.823   2.576    65.772  -0.017   
 339.400   176.172   3.372    11.836   9.524   2.547    65.782  -0.041   
 339.500   157.430   3.358    10.733   9.550   2.547    65.776  -0.032   
 339.600   180.858   3.358    11.610   9.515   2.547    65.786  -0.030   
 339.700   157.430   3.380    11.420  12.369   2.498    65.794  -0.041   
 339.800   115.262   3.380    11.651   7.540   2.581    65.786  -0.045   
 339.900   176.172   3.376    11.598   5.169   2.622    65.791  -0.038   
 340.000   152.745   3.363    12.106  11.871   2.507    65.795  -0.025   
 340.100   148.060   3.356    14.058   8.518   2.564    65.801  -0.020   
 340.200   166.801   3.358    13.538   7.763   2.577    65.809  -0.033   
 340.300   162.116   3.357    12.606  12.719   2.493    65.799  -0.014   
 340.400   194.914   3.358    11.558   4.880   2.627    65.817  -0.013   
 340.500   152.745   3.357    11.850  -0.873   2.725    65.817  -0.012   
 340.600   190.228   3.359    12.646   3.522   2.650    65.824  -0.012   
 340.700   166.801   3.358    11.286   7.472   2.582    65.826  0.009    
 340.800   129.318   3.358    10.052   5.851   2.610    65.836  -0.008   
 340.900   166.801   3.359    10.698   8.879   2.558    65.833  -0.009   
 341.000   176.172   3.359     9.570   9.162   2.553    65.826  -0.013   
 341.100   157.430   3.359     9.570   8.507   2.565    65.829  -0.004   
 341.200   134.003   3.358     9.471   5.363   2.618    65.832  0.009    
 341.300   166.801   3.358     8.949  11.572   2.512    65.832  0.004    
 341.400   199.599   3.359     8.910  10.796   2.525    65.830  0.004    
 341.500   171.487   3.359     9.186  14.039   2.470    65.836  0.003    
 341.600   194.914   3.359     9.440   8.015   2.573    65.838  -0.003   
 341.700   148.060   3.371     9.387  10.420   2.532    65.826  0.008    
 341.800   180.858   3.386     9.498   9.287   2.551    65.841  0.003    
 341.900   148.060   3.394    10.047  10.031   2.538    65.836  0.018    
 342.000   157.430   3.404     9.570   9.855   2.541    65.842  0.005    
 342.100   162.116   3.406     9.570  11.163   2.519    65.836  -0.016   
 342.200   138.689   3.408     9.575  10.867   2.524    65.823  -0.013   
 342.300   204.285   3.411     9.570   9.873   2.541    65.826  -0.022   
 342.400   148.060   3.409     9.579   7.268   2.586    65.832  -0.018   
 342.500   124.632   3.410    10.273  10.929   2.523    65.836  -0.034   
 342.600   162.116   3.409    10.047   9.470   2.548    65.829  -0.032   
 342.700   204.285   3.399     9.575   3.712   2.647    65.833  -0.037   
 342.800   218.341   3.395     9.313  14.344   2.465    65.833  -0.055   
 342.900   152.745   3.391     9.091  14.868   2.456    65.824  -0.043   
 343.000   134.003   3.391    10.936  12.983   2.488    65.830  -0.041   
 343.100   134.003   3.391    10.907  12.120   2.503    65.838  -0.038   
 343.200   180.858   3.396    11.446   5.672   2.613    65.840  -0.034   
 343.300   171.487   3.396    10.889  11.690   2.510    65.854  -0.025   
 343.400   148.060   3.398    10.990   7.314   2.585    65.854  -0.022   
 343.500   166.801   3.404     9.904   7.271   2.586    65.863  -0.028   
 343.600   134.003   3.414     9.611  10.928   2.523    65.865  -0.020   
 343.700   176.172   3.424     9.827  13.544   2.478    65.870  -0.012   
 343.800   199.599   3.424    10.252  13.731   2.475    65.879  -0.018   
 343.900   166.801   3.424    10.422   2.940   2.660    65.874  -0.018   
 344.000   162.116   3.426    10.796  12.019   2.504    65.879  -0.016   
 344.100   218.341   3.429    10.750   9.722   2.544    65.878  -0.004   
