~Version Information
 VERS.                2.0:  CWLS LOG ASCII STANDARD -VERSION 2.0
 WRAP.                 NO:  ONE LINE PER DEPTH STEP
~WELL INFORMATION BLOCK
#MNEM.UNIT       DATA		            DESCRIPTION OF MNEMONIC
#---------    -------------            ------------------------
 STRT.FT  12.700                         :START DEPTH
 STOP.FT  552.200                        :STOP DEPTH
 STEP.FT  0.100                          :STEP    UP_HOLE  
 NULL.    -999.25                        :NULL VALUE
 COMP.                             usgs  :COMPANY
 WELL.   CL1                                                           :WELL
 FLD .                       Candy Lane  :FIELD
 LOC .  Lat 38.61717 Long 107.90174      :LOCATION
 CNTY.                         Montrose  :COUNTY
 STAT.                     CO            :STATE
 SRVC.           None                    :SERVICE COMPANY
 DATE.   11/10/2005                      :LOG DATE
 API .                                   :API NUMBER
 LIC .                                   :LICENSE NUMBER
~Curve Information Block
#MNEM.UNIT      API CODE     Curve Description
#---------    -------------  ------------------------
 DEPT     .FT        00 001 00 00          :  1  DEPTH   
 GAMMA    .CPS       00 310 00 00          :  2                GAMMA
 CALIPER  .INCH      00 280 00 00          :  3              CALIPER
~Parameter Information Block
#MNEM.UNIT   Information     Description
#---------- ---------------  ------------------------
 FILE.      ORIGINAL           :File Type
 FIID.      9074C              :File Type Identifier
 VERS.      3.58F              :System Version
 SER .      1                  :System Serial Number
 TRUK.      .601567            :Truck Calibration Number
 TOOL.         877             :Tool Serial Number
 TIME.      1245               :Time    HrHrMinMin
 LAT .                         :Latitude
 LON .                         :Longitude
 LMF .          None           :Log Measured From
 DMF .            GL           :Driller Measured From
 PD  .          None           :Permanent Data
 PDEV.          None           :Elevation Permanent Data
 EKB .M         None           :Elevation Kelly Bushing
 ELEV.DF         550           :Elevation DF
 EGL .M         None           :Elevation Ground Level
 DRDP.           550           :Driller's Depth
 CASD.       8.2               :Casing Diameter
 CASB.            20           :Casing Bottom
 CASX.         steel           :Casing Type
 CAST.         0               :Casing Thickness
 TNOC.          None           :Time Circulation Stopped
 LOGU.       None              :Logging Unit
 RECB.         bscorland       :Recorded By
 OSR1.          None           :Other Services
 OSR2.          None           :Other Services
 OSR3.          None           :Other Services
 BS  .MM       5.875           :Bit Size
 MST .                         :Mean Surface Temperature
 TGRD.        0                :Temperature Gradiant
 MAGN.             0           :Magnetic Declination
 MDEN.      2.71               :Density Matrix
 MATR.       Dolomite          :Neutron Matrix
 DTMT.            54           :Delta T Matrix
 DTFL.                         :Delta T Fluid
 MUDS.               0         :Mud Sample Source
 MRS .           0             :Mud Resistivity
 MTP .           0             :Mud Temperature
 MFRS.                         :Resistivity Mud Filtrate
 MFTP.                         :Temperature Mud Filtrate
 MCRS.         0               :Resistivity Mud Cake
 MCTP.                         :Temperature Mud Cake
 FTYP.             0           :Fluid Type
 FD  .K/M3                     :Fluid Density
 DFV .S                        :Fluid Viscosity
 FPH .                         :Fuild PH
 ELCO.        2500             :Electron Cutoff
~Other Information
#MNEM.UNIT  Information      Description
#---------- ---------------  ------------------------
# -------------------------- 
~A DEPTH  GAMMA     CALIPER 
# ...
 178.300    95.000   5.097  
 178.400   160.000   5.097  
 178.500   100.000   5.097  
 178.600   110.000   5.097  
 178.700   100.000   5.101  
 178.800    90.000   5.097  
 178.900   175.000   5.097  
 179.000   160.000   5.097  
 179.100    85.000   5.097  
 179.200   150.000   5.099  
 179.300   136.667   5.101  
 179.400   125.000   5.105  
 179.500   160.000   5.105  
 179.600   135.000   5.105  
 179.700   140.000   5.105  
 179.800   170.000   5.105  
 179.900   110.000   5.109  
 180.000   110.000   5.105  
 180.100   116.667   5.105  
 180.200   105.000   5.105  
 180.300   155.000   5.107  
 180.400   130.000   5.103  
 180.500   125.000   5.105  
 180.600   110.000   5.107  
 180.700   130.000   5.103  
 180.800   135.000   5.105  
 180.900   140.000   5.105  
 181.000   145.000   5.107  
 181.100   110.000   5.109  
 181.200   125.000   5.105  
 181.300   156.667   5.105  
 181.400   125.000   5.105  
 181.500   175.000   5.105  
 181.600   155.000   5.109  
 181.700    90.000   5.105  
 181.800   120.000   5.105  
 181.900   115.000   5.105  
 182.000   115.000   5.107  
 182.100   105.000   5.105  
 182.200   120.000   5.105  
 182.300   135.000   5.105  
 182.400   120.000   5.107  
 182.500   173.333   5.105  
 182.600   120.000   5.105  
 182.700   130.000   5.104  
 182.800    95.000   5.105  
 182.900   170.000   5.109  
 183.000   120.000   5.105  
 183.100   150.000   5.105  
 183.200   220.000   5.105  
 183.300   115.000   5.105  
 183.400   155.000   5.107  
 183.500   123.333   5.105  
 183.600   110.000   5.105  
 183.700   100.000   5.103  
 183.800   115.000   5.105  
 183.900   140.000   5.105  
 184.000   130.000   5.103  
 184.100   150.000   5.103  
 184.200    75.000   5.105  
 184.300    85.000   5.103  
 184.400   150.000   5.105  
 184.500   105.000   5.105  
 184.600   145.000   5.107  
 184.700   145.000   5.112  
 184.800   135.000   5.125  
 184.900   170.000   5.129  
 185.000   145.000   5.131  
 185.100   195.000   5.133  
 185.200   210.000   5.133  
 185.300   200.000   5.135  
 185.400   160.000   5.143  
 185.500   180.000   5.143  
 185.600   180.000   5.133  
 185.700   130.000   5.129  
 185.800   186.667   5.123  
 185.900    85.000   5.113  
 186.000   130.000   5.105  
 186.100   155.000   5.105  
 186.200   105.000   5.103  
 186.300   220.000   5.105  
 186.400   200.000   5.103  
 186.500   120.000   5.105  
 186.600   155.000   5.103  
 186.700   175.000   5.103  
 186.800   170.000   5.104  
 186.900   155.000   5.105  
 187.000   216.667   5.103  
 187.100   165.000   5.103  
 187.200   120.000   5.103  
 187.300   220.000   5.103  
 187.400   150.000   5.105  
 187.500   205.000   5.101  
 187.600   180.000   5.103  
 187.700   155.000   5.105  
 187.800   170.000   5.105  
 187.900   170.000   5.107  
 188.000   210.000   5.105  
 188.100   165.000   5.107  
 188.200   205.000   5.105  
 188.300   200.000   5.101  
 188.400   176.667   5.101  
 188.500   210.000   5.101  
 188.600   115.000   5.103  
 188.700   180.000   5.099  
 188.800   100.000   5.099  
 188.900   220.000   5.101  
 189.000   120.000   5.101  
 189.100   180.000   5.101  
 189.200   130.000   5.105  
 189.300   193.333   5.103  
 189.400   190.000   5.105  
 189.500   175.000   5.105  
 189.600   135.000   5.105  
 189.700   205.000   5.109  
 189.800   145.000   5.107  
 189.900   180.000   5.105  
 190.000   160.000   5.109  
 190.100   115.000   5.109  
 190.200   160.000   5.105  
 190.300   160.000   5.105  
 190.400   160.000   5.105  
 190.500   185.000   5.105  
 190.600   170.000   5.105  
 190.700   145.000   5.105  
 190.800   173.333   5.105  
 190.900   155.000   5.105  
 191.000   125.000   5.105  
 191.100   160.000   5.105  
 191.200   150.000   5.105  
 191.300   165.000   5.105  
 191.400   105.000   5.105  
 191.500   240.000   5.105  
 191.600   145.000   5.105  
 191.700   156.667   5.105  
 191.800   205.000   5.105  
 191.900   140.000   5.105  
 192.000   170.000   5.105  
 192.100   185.000   5.105  
 192.200   185.000   5.105  
 192.300   190.000   5.105  
 192.400   165.000   5.109  
 192.500   210.000   5.109  
 192.600   180.000   5.107  
 192.700   130.000   5.105  
 192.800   176.667   5.105  
 192.900   215.000   5.105  
 193.000   195.000   5.107  
 193.100   120.000   5.109  
 193.200   215.000   5.107  
 193.300   145.000   5.107  
 193.400   160.000   5.109  
 193.500   185.000   5.109  
 193.600   175.000   5.109  
 193.700   135.000   5.109  
 193.800   190.000   5.109  
 193.900   160.000   5.111  
 194.000   176.667   5.109  
 194.100   180.000   5.107  
 194.200   160.000   5.109  
 194.300   180.000   5.109  
 194.400   210.000   5.109  
 194.500   180.000   5.109  
 194.600   155.000   5.107  
 194.700   175.000   5.107  
 194.800   130.000   5.109  
 194.900   136.667   5.109  
 195.000   130.000   5.109  
 195.100   195.000   5.108  
 195.200   145.000   5.109  
 195.300   165.000   5.109  
 195.400   110.000   5.109  
 195.500   145.000   5.109  
 195.600   120.000   5.109  
 195.700   220.000   5.111  
 195.800   160.000   5.109  
 195.900   185.000   5.109  
 196.000   175.000   5.105  
 196.100   153.333   5.103  
 196.200   130.000   5.101  
 196.300   155.000   5.094  
 196.400   140.000   5.092  
 196.500   145.000   5.092  
 196.600   165.000   5.092  
 196.700   115.000   5.090  
 196.800   155.000   5.090  
 196.900   145.000   5.090  
 197.000   160.000   5.090  
 197.100   145.000   5.090  
 197.200   150.000   5.090  
 197.300   165.000   5.090  
 197.400   186.667   5.094  
 197.500   155.000   5.099  
 197.600   175.000   5.099  
 197.700   130.000   5.101  
 197.800   115.000   5.103  
 197.900   140.000   5.101  
 198.000   115.000   5.097  
 198.100   145.000   5.097  
 198.200   105.000   5.097  
 198.300   126.667   5.097  
 198.400   120.000   5.097  
 198.500    95.000   5.097  
 198.600   125.000   5.095  
 198.700   105.000   5.097  
 198.800   135.000   5.097  
 198.900    90.000   5.097  
 199.000   155.000   5.097  
 199.100   145.000   5.097  
 199.200    65.000   5.101  
 199.300   100.000   5.099  
 199.400   110.000   5.099  
 199.500    95.000   5.099  
 199.600   120.000   5.101  
 199.700   125.000   5.097  
 199.800   165.000   5.101  
 199.900   160.000   5.099  
 200.000   135.000   5.101  
 200.100   120.000   5.099  
 200.200   160.000   5.099  
 200.300   160.000   5.101  
 200.400   150.000   5.097  
 200.500   130.000   5.101  
 200.600   140.000   5.099  
 200.700   160.000   5.099  
 200.800   170.000   5.101  
 200.900   130.000   5.097  
 201.000   150.000   5.097  
 201.100   135.000   5.099  
 201.200   130.000   5.099  
 201.300    75.000   5.101  
 201.400   130.000   5.101  
 201.500   140.000   5.101  
 201.600   130.000   5.101  
 201.700   105.000   5.099  
 201.800   140.000   5.099  
 201.900   155.000   5.101  
 202.000   140.000   5.101  
 202.100   180.000   5.101  
 202.200   120.000   5.101  
 202.300   185.000   5.099  
 202.400   105.000   5.101  
 202.500   105.000   5.101  
 202.600   125.000   5.101  
 202.700   130.000   5.101  
 202.800   130.000   5.101  
 202.900   145.000   5.099  
 203.000    95.000   5.101  
 203.100   125.000   5.103  
 203.200   155.000   5.101  
 203.300   130.000   5.101  
 203.400   130.000   5.099  
 203.500   135.000   5.099  
 203.600   125.000   5.097  
 203.700   126.667   5.101  
 203.800   145.000   5.097  
 203.900   115.000   5.101  
 204.000   150.000   5.097  
 204.100   190.000   5.101  
 204.200    95.000   5.099  
 204.300    90.000   5.101  
 204.400   150.000   5.099  
 204.500   130.000   5.099  
 204.600   135.000   5.099  
 204.700    95.000   5.099  
 204.800   153.333   5.101  
 204.900    85.000   5.099  
 205.000   125.000   5.101  
 205.100   115.000   5.099  
 205.200   135.000   5.099  
 205.300   155.000   5.097  
 205.400   170.000   5.097  
 205.500   160.000   5.099  
 205.600   130.000   5.099  
 205.700   170.000   5.101  
 205.800   160.000   5.101  
