~Version Information
 VERS.                2.0:  CWLS LOG ASCII STANDARD -VERSION 2.0
 WRAP.                 NO:  ONE LINE PER DEPTH STEP
~WELL INFORMATION BLOCK
#MNEM.UNIT       DATA		            DESCRIPTION OF MNEMONIC
#---------    -------------            ------------------------
 STRT.FT  6.300                          :START DEPTH
 STOP.FT  557.000                        :STOP DEPTH
 STEP.FT  0.100                          :STEP    UP_HOLE  
 NULL.    -999.25                        :NULL VALUE
 COMP.                             usgs  :COMPANY
 WELL.   CL1                                                           :WELL
 FLD .                       Candy Lane  :FIELD
 LOC . Lat 38.61717 Long 107.90174       :LOCATION
 CNTY.                         Montrose  :COUNTY
 STAT.                     CO            :STATE
 SRVC.           None                    :SERVICE COMPANY
 DATE.   11/10/2005                      :LOG DATE
 API .                                   :API NUMBER
 LIC .                                   :LICENSE NUMBER
~Curve Information Block
#MNEM.UNIT      API CODE     Curve Description
#---------    -------------  ------------------------
 DEPT     .FT        00 001 00 00          :  1  DEPTH   
 GAMMA    .API-GR    00 310 00 00          :  2                GAMMA
 CALIPER  .INCH      00 280 00 00          :  3              CALIPER
 RES(SG)  .OHM-M     00 220 00 00          :  4              RES(SG)
 POR(DEN) .PERCENT   00 890 00 00          :  5             POR(DEN)
 DEN(CDL) .G/CC      00 350 00 00          :  6             DEN(CDL)
 TEMP     .DEG F     00 660 00 00          :  7                 TEMP
 DEL TEMP .DEG F     00 000 00 00          :  8             DEL TEMP
~Parameter Information Block
#MNEM.UNIT   Information     Description
#---------- ---------------  ------------------------
 FILE.      ORIGINAL           :File Type
 FIID.      9139A              :File Type Identifier
 VERS.      3.58F              :System Version
 SER .      1                  :System Serial Number
 TRUK.      .601567            :Truck Calibration Number
 TOOL.        1239             :Tool Serial Number
 TIME.      1635               :Time    HrHrMinMin
 LAT .                         :Latitude
 LON .                         :Longitude
 LMF .          None           :Log Measured From
 DMF .            GL           :Driller Measured From
 PD  .          None           :Permanent Data
 PDEV.          None           :Elevation Permanent Data
 EKB .M         None           :Elevation Kelly Bushing
 ELEV.DF         550           :Elevation DF
 EGL .M         None           :Elevation Ground Level
 DRDP.           550           :Driller's Depth
 CASD.       8.2               :Casing Diameter
 CASB.            20           :Casing Bottom
 CASX.         steel           :Casing Type
 CAST.         0               :Casing Thickness
 TNOC.          None           :Time Circulation Stopped
 LOGU.       None              :Logging Unit
 RECB.         bscorland       :Recorded By
 OSR1.          None           :Other Services
 OSR2.          None           :Other Services
 OSR3.          None           :Other Services
 BS  .MM       5.875           :Bit Size
 MST .                         :Mean Surface Temperature
 TGRD.        0                :Temperature Gradiant
 MAGN.             0           :Magnetic Declination
 MDEN.      2.71               :Density Matrix
 MATR.       Dolomite          :Neutron Matrix
 DTMT.            54           :Delta T Matrix
 DTFL.                         :Delta T Fluid
 MUDS.               0         :Mud Sample Source
 MRS .           0             :Mud Resistivity
 MTP .           0             :Mud Temperature
 MFRS.                         :Resistivity Mud Filtrate
 MFTP.                         :Temperature Mud Filtrate
 MCRS.         0               :Resistivity Mud Cake
 MCTP.                         :Temperature Mud Cake
 FTYP.             0           :Fluid Type
 FD  .K/M3                     :Fluid Density
 DFV .S                        :Fluid Viscosity
 FPH .                         :Fuild PH
 ELCO.        2500             :Electron Cutoff
~Other Information
#MNEM.UNIT  Information      Description
#---------- ---------------  ------------------------
# -------------------------- 
~A DEPTH  GAMMA     CALIPER RES(SG)   POR(DEN) DEN(CDL) TEMP    DEL TEMP 
# ...
  39.000   129.552   3.402  2500.000   9.861   2.541    55.143  -0.026   
  39.100   121.587   3.394  2500.000  10.682   2.527    55.112  0.001    
  39.200   129.552   3.394  2500.000   8.708   2.561    55.148  -0.019   
  39.300   137.517   3.382  2500.000   5.749   2.612    55.134  -0.016   
  39.400   137.517   3.378  2500.000   7.658   2.579    55.120  0.000    
  39.500   149.465   3.374  2500.000  10.566   2.529    55.130  0.019    
  39.600   153.448   3.374  2500.000   6.499   2.599    55.141  0.004    
  39.700   109.639   3.376  2500.000  11.367   2.516    55.130  -0.010   
  39.800    89.726   3.380  2500.000   8.539   2.564    55.120  0.007    
  39.900   149.465   3.386  2500.000  11.921   2.506    55.138  0.016    
  40.000   121.587   3.391  2500.000   5.835   2.610    55.138  0.016    
  40.100    93.709   3.401  2500.000  12.247   2.501    55.146  0.036    
  40.200   101.674   3.409  2500.000  10.635   2.528    55.153  0.019    
  40.300   105.656   3.411  2500.000   4.868   2.627    55.137  0.005    
  40.400   165.396   3.414  2500.000  12.337   2.499    55.130  0.007    
  40.500   141.500   3.416  2500.000   6.615   2.597    55.122  0.016    
  40.600   101.674   3.423  2500.000   8.227   2.569    55.126  0.015    
  40.700   153.448   3.433  2500.000   9.679   2.544    55.130  0.012    
  40.800   137.517   3.436  2500.000   7.437   2.583    55.131  -0.014   
  40.900   137.517   3.438  2500.000   6.150   2.605    55.122  -0.005   
  41.000   133.535   3.437  2500.000  10.137   2.537    55.130  0.011    
  41.100   149.465   3.437  2500.000   9.342   2.550    55.117  -0.010   
  41.200   117.604   3.437  2500.000   9.521   2.547    55.117  -0.011   
  41.300   137.517   3.436  2500.000   4.509   2.633    55.124  -0.003   
  41.400   141.500   3.435  2500.000   8.226   2.569    55.115  -0.012   
  41.500   101.674   3.436  2500.000   6.489   2.599    55.109  0.010    
  41.600   145.483   3.436  2500.000   6.447   2.600    55.115  0.000    
  41.700   129.552   3.435  2500.000   6.993   2.590    55.119  0.022    
  41.800   105.656   3.434  2500.000   8.143   2.571    55.135  0.019    
  41.900   109.639   3.435  2500.000  11.061   2.521    55.135  -0.012   
  42.000   141.500   3.434  2500.000   7.731   2.578    55.106  0.011    
  42.100   145.483   3.434  2500.000  11.647   2.511    55.127  0.037    
  42.200   185.309   3.434  2500.000  10.248   2.535    55.135  0.004    
  42.300   133.535   3.435  2500.000  23.108   2.315    55.117  0.019    
  42.400   105.656   3.452  2500.000  28.303   2.226    55.122  -0.008   
  42.500   117.604   3.493  2500.000  11.632   2.511    55.105  0.011    
  42.600   149.465   3.576  2500.000   0.391   2.703    55.119  0.001    
  42.700   137.517   3.675  2500.000   2.811   2.662    55.113  0.000    
  42.800   177.344   3.479  2500.000   3.643   2.648    55.116  0.012    
  42.900   173.361   3.460  2500.000  -3.292   2.766    55.119  -0.001   
  43.000   165.396   3.464  2500.000   9.979   2.539    55.116  -0.022   
  43.100   209.204   3.458  2500.000  25.494   2.274    55.098  -0.001   
  43.200   157.430   3.444  2500.000  31.344   2.174    55.113  -0.018   
  43.300   133.535   3.441  2500.000  21.923   2.335    55.102  0.000    
  43.400   141.500   3.440  2500.000  14.685   2.459    55.113  -0.004   
  43.500   117.604   3.438  2500.000  10.507   2.530    55.108  0.007    
  43.600   129.552   3.436  2500.000  11.601   2.512    55.112  -0.004   
  43.700   177.344   3.433  2500.000  11.129   2.520    55.116  0.008    
  43.800   153.448   3.426  2500.000  10.488   2.531    55.106  0.014    
  43.900   133.535   3.423  2500.000  10.496   2.531    55.117  -0.008   
  44.000   129.552   3.416  2500.000   8.281   2.568    55.120  -0.021   
  44.100   165.396   3.412  2500.000  10.753   2.526    55.115  -0.008   
  44.200   153.448   3.410  2500.000   5.495   2.616    55.120  -0.016   
  44.300   141.500   3.411  2500.000   6.092   2.606    55.113  -0.027   
  44.400   129.552   3.411  2500.000   9.982   2.539    55.112  -0.040   
  44.500   149.465   3.411  2500.000   5.614   2.614    55.105  -0.014   
  44.600   169.378   3.411  2500.000   9.369   2.550    55.120  -0.029   
  44.700   169.378   3.410  2500.000   2.587   2.666    55.098  -0.025   
  44.800   133.535   3.411  2500.000  12.830   2.491    55.104  -0.004   
  44.900   137.517   3.411  2500.000  10.278   2.534    55.128  0.014    
  45.000   129.552   3.411  2500.000   8.778   2.560    55.135  0.007    
  45.100    97.691   3.411  2500.000  10.920   2.523    55.128  0.026    
  45.200   133.535   3.412  2500.000   6.652   2.596    55.130  0.021    
  45.300   113.622   3.412  2500.000  11.813   2.508    55.139  0.029    
  45.400   145.483   3.414  2500.000  16.531   2.427    55.145  0.033    
  45.500   117.604   3.419  2500.000  13.448   2.480    55.134  0.022    
  45.600    97.691   3.423  2500.000   9.738   2.543    55.127  0.037    
  45.700   101.674   3.430  2500.000   9.999   2.539    55.128  0.026    
  45.800   153.448   3.432  2500.000   7.945   2.574    55.132  0.037    
  45.900   133.535   3.433  2500.000   9.021   2.556    55.122  0.014    
  46.000   145.483   3.432  2500.000   8.021   2.573    55.122  -0.003   
  46.100   129.552   3.430  2500.000   4.166   2.639    55.104  -0.014   
  46.200   173.361   3.431  2500.000   8.610   2.563    55.119  0.004    
  46.300   145.483   3.430  2500.000   9.193   2.553    55.116  -0.025   
  46.400   149.465   3.430  2500.000  11.454   2.514    55.101  -0.027   
  46.500   113.622   3.430  2500.000   6.907   2.592    55.105  -0.027   
  46.600   121.587   3.428  2500.000   6.595   2.597    55.091  -0.012   
  46.700   149.465   3.430  2500.000   8.028   2.573    55.106  -0.041   
  46.800   109.639   3.430  2500.000   6.672   2.596    55.085  -0.021   
  46.900   133.535   3.429  2500.000   7.634   2.579    55.108  -0.014   
  47.000   185.309   3.429  2500.000   3.697   2.647    55.106  0.001    
  47.100   141.500   3.431  2500.000   5.514   2.616    55.132  -0.005   
  47.200   133.535   3.431  2500.000   9.606   2.546    55.112  0.004    
  47.300   145.483   3.430  2500.000   7.844   2.576    55.126  0.005    
  47.400   153.448   3.430  2500.000   2.370   2.669    55.132  -0.004   
  47.500   153.448   3.427  2500.000   8.503   2.565    55.119  0.004    
  47.600   181.326   3.426  2500.000  13.694   2.476    55.119  -0.003   
  47.700   145.483   3.425  2500.000   8.267   2.569    55.126  0.005    
  47.800   133.535   3.425  2500.000  10.117   2.537    55.128  0.004    
  47.900   173.361   3.425  2500.000   6.582   2.597    55.120  -0.001   
  48.000   129.552   3.424  2500.000  10.228   2.535    55.131  0.008    
  48.100    77.778   3.425  2500.000   4.031   2.641    55.117  -0.001   
  48.200   121.587   3.425  2500.000   5.708   2.612    55.122  0.005    
  48.300    85.743   3.425  2500.000   7.794   2.577    55.127  0.001    
  48.400   113.622   3.424  2500.000  11.864   2.507    55.123  0.004    
  48.500   141.500   3.425  2500.000   8.747   2.560    55.115  0.011    
  48.600   145.483   3.421  2500.000   9.337   2.550    55.128  0.023    
  48.700   105.656   3.421  2500.000   0.452   2.702    55.123  0.007    
  48.800   137.517   3.423  2500.000  11.673   2.510    55.116  0.023    
  48.900   113.622   3.430  2500.000   4.930   2.626    55.132  -0.022   
  49.000   113.622   3.434  2500.000   4.333   2.636    55.109  0.026    
  49.100   109.639   3.435  2500.000   7.954   2.574    55.123  -0.005   
  49.200   149.465   3.438  2500.000   2.881   2.661    55.122  0.004    
  49.300   129.552   3.438  2500.000   5.978   2.608    55.122  -0.003   
  49.400   129.552   3.439  2500.000   8.146   2.571    55.111  -0.003   
  49.500   189.291   3.437  2500.000   7.312   2.585    55.117  -0.021   
  49.600   109.639   3.438  2500.000   3.619   2.648    55.100  -0.001   
  49.700    81.761   3.437  2500.000  10.034   2.538    55.109  -0.011   
  49.800   117.604   3.431  2500.000   5.927   2.609    55.109  0.038    
