~Version Information
 VERS.                2.0:  CWLS LOG ASCII STANDARD -VERSION 2.0
 WRAP.                 NO:  ONE LINE PER DEPTH STEP
~WELL INFORMATION BLOCK
#MNEM.UNIT       DATA		            DESCRIPTION OF MNEMONIC
#---------    -------------            ------------------------
 STRT.FT  12.700                         :START DEPTH
 STOP.FT  552.200                        :STOP DEPTH
 STEP.FT  0.100                          :STEP    UP_HOLE  
 NULL.    -999.25                        :NULL VALUE
 COMP.                             usgs  :COMPANY
 WELL.   CL1                                                           :WELL
 FLD .                       Candy Lane  :FIELD
 LOC .  Lat 38.61717 Long 107.90174      :LOCATION
 CNTY.                         Montrose  :COUNTY
 STAT.                     CO            :STATE
 SRVC.           None                    :SERVICE COMPANY
 DATE.   11/10/2005                      :LOG DATE
 API .                                   :API NUMBER
 LIC .                                   :LICENSE NUMBER
~Curve Information Block
#MNEM.UNIT      API CODE     Curve Description
#---------    -------------  ------------------------
 DEPT     .FT        00 001 00 00          :  1  DEPTH   
 GAMMA    .CPS       00 310 00 00          :  2                GAMMA
 CALIPER  .INCH      00 280 00 00          :  3              CALIPER
~Parameter Information Block
#MNEM.UNIT   Information     Description
#---------- ---------------  ------------------------
 FILE.      ORIGINAL           :File Type
 FIID.      9074C              :File Type Identifier
 VERS.      3.58F              :System Version
 SER .      1                  :System Serial Number
 TRUK.      .601567            :Truck Calibration Number
 TOOL.         877             :Tool Serial Number
 TIME.      1245               :Time    HrHrMinMin
 LAT .                         :Latitude
 LON .                         :Longitude
 LMF .          None           :Log Measured From
 DMF .            GL           :Driller Measured From
 PD  .          None           :Permanent Data
 PDEV.          None           :Elevation Permanent Data
 EKB .M         None           :Elevation Kelly Bushing
 ELEV.DF         550           :Elevation DF
 EGL .M         None           :Elevation Ground Level
 DRDP.           550           :Driller's Depth
 CASD.       8.2               :Casing Diameter
 CASB.            20           :Casing Bottom
 CASX.         steel           :Casing Type
 CAST.         0               :Casing Thickness
 TNOC.          None           :Time Circulation Stopped
 LOGU.       None              :Logging Unit
 RECB.         bscorland       :Recorded By
 OSR1.          None           :Other Services
 OSR2.          None           :Other Services
 OSR3.          None           :Other Services
 BS  .MM       5.875           :Bit Size
 MST .                         :Mean Surface Temperature
 TGRD.        0                :Temperature Gradiant
 MAGN.             0           :Magnetic Declination
 MDEN.      2.71               :Density Matrix
 MATR.       Dolomite          :Neutron Matrix
 DTMT.            54           :Delta T Matrix
 DTFL.                         :Delta T Fluid
 MUDS.               0         :Mud Sample Source
 MRS .           0             :Mud Resistivity
 MTP .           0             :Mud Temperature
 MFRS.                         :Resistivity Mud Filtrate
 MFTP.                         :Temperature Mud Filtrate
 MCRS.         0               :Resistivity Mud Cake
 MCTP.                         :Temperature Mud Cake
 FTYP.             0           :Fluid Type
 FD  .K/M3                     :Fluid Density
 DFV .S                        :Fluid Viscosity
 FPH .                         :Fuild PH
 ELCO.        2500             :Electron Cutoff
~Other Information
#MNEM.UNIT  Information      Description
#---------- ---------------  ------------------------
# -------------------------- 
~A DEPTH  GAMMA     CALIPER 
# ...
 371.500   205.000   5.074  
 371.600   160.000   5.056  
 371.700   190.000   5.068  
 371.800   195.000   5.052  
 371.900   203.333   5.070  
 372.000   165.000   5.069  
 372.100   155.000   5.076  
 372.200   180.000   5.056  
 372.300   140.000   5.072  
 372.400   145.000   5.078  
 372.500   226.667   5.080  
 372.600   145.000   5.082  
 372.700   175.000   5.080  
 372.800   145.000   5.078  
 372.900   150.000   5.082  
 373.000   190.000   5.080  
 373.100   255.000   5.086  
 373.200   230.000   5.064  
 373.300   173.333   5.068  
 373.400   180.000   5.070  
 373.500   140.000   5.063  
 373.600   230.000   5.084  
 373.700   225.000   5.082  
 373.800   130.000   5.088  
 373.900   195.000   5.094  
 374.000   140.000   5.080  
 374.100   215.000   5.076  
 374.200   180.000   5.088  
 374.300   185.000   5.086  
 374.400   170.000   5.086  
 374.500   160.000   5.088  
 374.600   175.000   5.090  
 374.700   160.000   5.080  
 374.800   200.000   5.080  
 374.900   235.000   5.084  
 375.000   176.667   5.080  
 375.100   190.000   5.082  
 375.200   145.000   5.084  
 375.300   210.000   5.084  
 375.400   220.000   5.071  
 375.500   220.000   5.044  
 375.600   195.000   5.066  
 375.700   190.000   5.072  
 375.800   263.333   5.082  
 375.900   190.000   5.084  
 376.000   160.000   5.080  
 376.100   215.000   5.086  
 376.200   195.000   5.084  
 376.300   185.000   5.080  
 376.400   250.000   5.082  
 376.500   170.000   5.082  
 376.600   265.000   5.080  
 376.700   203.333   5.080  
 376.800   275.000   5.078  
 376.900   190.000   5.082  
 377.000   190.000   5.082  
 377.100   225.000   5.082  
 377.200   220.000   5.082  
 377.300   300.000   5.084  
 377.400   180.000   5.086  
 377.500   245.000   5.084  
 377.600   230.000   5.097  
 377.700   230.000   5.086  
 377.800   205.000   5.095  
 377.900   210.000   5.090  
 378.000   165.000   5.119  
 378.100   165.000   5.092  
 378.200   110.000   5.076  
 378.300    90.000   5.070  
 378.400    95.000   5.076  
 378.500   105.000   5.072  
 378.600   100.000   5.063  
 378.700    75.000   5.064  
 378.800    95.000   5.070  
 378.900   115.000   5.060  
 379.000   115.000   5.060  
 379.100   130.000   5.064  
 379.200   173.333   5.073  
 379.300   170.000   5.074  
 379.400   190.000   5.084  
 379.500   195.000   5.090  
 379.600   175.000   5.090  
 379.700   210.000   5.090  
 379.800   150.000   5.090  
 379.900   190.000   5.088  
 380.000   195.000   5.084  
 380.100   203.333   5.082  
 380.200   200.000   5.080  
 380.300   185.000   5.078  
 380.400   135.000   5.076  
 380.500   185.000   5.072  
 380.600   285.000   5.076  
 380.700   205.000   5.086  
 380.800   240.000   5.095  
 380.900   216.667   5.096  
 381.000   175.000   5.094  
 381.100   225.000   5.090  
 381.200   190.000   5.086  
 381.300   185.000   5.086  
 381.400   195.000   5.084  
 381.500   230.000   5.080  
 381.600   185.000   5.080  
 381.700   225.000   5.083  
 381.800   120.000   5.082  
 381.900   145.000   5.082  
 382.000   220.000   5.076  
 382.100   195.000   5.076  
 382.200   160.000   5.076  
 382.300   180.000   5.072  
 382.400   215.000   5.080  
 382.500   205.000   5.080  
 382.600   250.000   5.080  
 382.700   205.000   5.082  
 382.800   290.000   5.082  
 382.900   165.000   5.082  
 383.000   155.000   5.082  
 383.100   176.667   5.082  
 383.200   180.000   5.080  
 383.300   225.000   5.080  
 383.400   225.000   5.079  
 383.500   245.000   5.076  
 383.600   195.000   5.084  
 383.700   220.000   5.064  
 383.800   215.000   5.074  
 383.900   196.667   5.084  
 384.000   175.000   5.086  
 384.100   185.000   5.084  
 384.200   190.000   5.084  
 384.300   245.000   5.086  
 384.400   235.000   5.086  
 384.500   176.667   5.084  
 384.600   175.000   5.086  
 384.700   195.000   5.086  
 384.800   200.000   5.086  
 384.900   175.000   5.084  
 385.000   145.000   5.086  
 385.100   185.000   5.086  
 385.200   180.000   5.086  
 385.300   153.333   5.086  
 385.400   130.000   5.086  
 385.500   270.000   5.086  
 385.600   175.000   5.084  
 385.700   220.000   5.086  
 385.800   190.000   5.086  
 385.900   165.000   5.086  
 386.000   160.000   5.086  
 386.100   135.000   5.086  
 386.200   195.000   5.086  
 386.300   205.000   5.086  
 386.400   196.667   5.086  
 386.500   200.000   5.086  
 386.600   240.000   5.086  
 386.700   165.000   5.086  
 386.800   125.000   5.086  
 386.900   200.000   5.088  
 387.000   183.333   5.088  
 387.100   170.000   5.090  
 387.200   200.000   5.088  
 387.300   175.000   5.088  
 387.400   130.000   5.090  
 387.500   180.000   5.090  
 387.600   215.000   5.092  
 387.700   193.333   5.090  
 387.800   215.000   5.090  
 387.900   160.000   5.088  
 388.000   180.000   5.086  
 388.100   160.000   5.086  
 388.200   110.000   5.090  
 388.300   190.000   5.086  
 388.400   180.000   5.090  
 388.500   160.000   5.090  
 388.600   196.667   5.090  
 388.700   215.000   5.084  
 388.800   190.000   5.086  
 388.900   195.000   5.086  
 389.000   125.000   5.086  
 389.100   230.000   5.088  
 389.200   195.000   5.086  
 389.300   180.000   5.086  
 389.400   175.000   5.088  
 389.500   153.333   5.086  
 389.600   200.000   5.074  
 389.700   195.000   5.095  
 389.800   155.000   5.096  
 389.900   140.000   5.097  
 390.000   230.000   5.097  
 390.100   225.000   5.095  
 390.200   160.000   5.092  
 390.300   190.000   5.094  
 390.400   220.000   5.090  
 390.500   190.000   5.094  
 390.600   190.000   5.091  
 390.700   175.000   5.090  
 390.800   223.333   5.088  
 390.900   145.000   5.092  
 391.000   210.000   5.099  
 391.100   175.000   5.074  
 391.200   175.000   5.087  
 391.300   190.000   5.086  
 391.400   180.000   5.088  
 391.500   210.000   5.088  
 391.600   146.667   5.086  
 391.700   135.000   5.086  
 391.800   190.000   5.090  
 391.900   220.000   5.086  
 392.000   150.000   5.084  
 392.100   180.000   5.086  
 392.200   175.000   5.086  
 392.300   205.000   5.078  
 392.400   185.000   5.078  
 392.500   193.333   5.086  
 392.600   120.000   5.090  
 392.700   205.000   5.090  
 392.800   215.000   5.090  
 392.900   200.000   5.086  
 393.000   145.000   5.090  
 393.100   260.000   5.092  
 393.200   170.000   5.094  
 393.300   175.000   5.092  
 393.400   235.000   5.095  
 393.500   235.000   5.097  
 393.600   135.000   5.097  
 393.700   240.000   5.097  
 393.800   250.000   5.097  
 393.900   195.000   5.097  
 394.000   216.667   5.101  
 394.100   205.000   5.101  
 394.200   210.000   5.101  
 394.300   140.000   5.094  
 394.400   170.000   5.090  
 394.500   195.000   5.090  
 394.600   235.000   5.086  
 394.700   220.000   5.086  
 394.800   185.000   5.084  
 394.900   165.000   5.084  
 395.000   166.667   5.072  
 395.100   220.000   5.086  
 395.200   130.000   5.086  
 395.300   160.000   5.084  
 395.400   185.000   5.084  
 395.500   160.000   5.088  
 395.600   175.000   5.090  
 395.700   185.000   5.088  
 395.800   235.000   5.086  
 395.900   173.333   5.084  
 396.000   160.000   5.082  
 396.100   210.000   5.082  
 396.200   195.000   5.084  
 396.300   170.000   5.084  
 396.400   180.000   5.084  
 396.500   166.667   5.084  
 396.600   230.000   5.082  
 396.700   190.000   5.074  
 396.800   150.000   5.060  
 396.900   210.000   5.079  
 397.000   255.000   5.084  
 397.100   240.000   5.088  
 397.200   235.000   5.088  
 397.300   210.000   5.090  
 397.400   250.000   5.094  
 397.500   190.000   5.091  
 397.600   205.000   5.092  
 397.700   165.000   5.092  
 397.800   170.000   5.092  
 397.900   155.000   5.092  
 398.000   185.000   5.092  
 398.100   230.000   5.090  
 398.200   135.000   5.092  
 398.300   193.333   5.091  
 398.400   135.000   5.092  
 398.500   160.000   5.094  
 398.600   195.000   5.092  
 398.700   195.000   5.092  
 398.800   185.000   5.090  
 398.900   180.000   5.092  
 399.000   195.000   5.088  
