~Version Information
 VERS.                2.0:  CWLS LOG ASCII STANDARD -VERSION 2.0
 WRAP.                 NO:  ONE LINE PER DEPTH STEP
~WELL INFORMATION BLOCK
#MNEM.UNIT       DATA		            DESCRIPTION OF MNEMONIC
#---------    -------------            ------------------------
 STRT.FT  6.300                          :START DEPTH
 STOP.FT  557.000                        :STOP DEPTH
 STEP.FT  0.100                          :STEP    UP_HOLE  
 NULL.    -999.25                        :NULL VALUE
 COMP.                             usgs  :COMPANY
 WELL.   CL1                                                           :WELL
 FLD .                       Candy Lane  :FIELD
 LOC . Lat 38.61717 Long 107.90174       :LOCATION
 CNTY.                         Montrose  :COUNTY
 STAT.                     CO            :STATE
 SRVC.           None                    :SERVICE COMPANY
 DATE.   11/10/2005                      :LOG DATE
 API .                                   :API NUMBER
 LIC .                                   :LICENSE NUMBER
~Curve Information Block
#MNEM.UNIT      API CODE     Curve Description
#---------    -------------  ------------------------
 DEPT     .FT        00 001 00 00          :  1  DEPTH   
 GAMMA    .API-GR    00 310 00 00          :  2                GAMMA
 CALIPER  .INCH      00 280 00 00          :  3              CALIPER
 RES(SG)  .OHM-M     00 220 00 00          :  4              RES(SG)
 POR(DEN) .PERCENT   00 890 00 00          :  5             POR(DEN)
 DEN(CDL) .G/CC      00 350 00 00          :  6             DEN(CDL)
 TEMP     .DEG F     00 660 00 00          :  7                 TEMP
 DEL TEMP .DEG F     00 000 00 00          :  8             DEL TEMP
~Parameter Information Block
#MNEM.UNIT   Information     Description
#---------- ---------------  ------------------------
 FILE.      ORIGINAL           :File Type
 FIID.      9139A              :File Type Identifier
 VERS.      3.58F              :System Version
 SER .      1                  :System Serial Number
 TRUK.      .601567            :Truck Calibration Number
 TOOL.        1239             :Tool Serial Number
 TIME.      1635               :Time    HrHrMinMin
 LAT .                         :Latitude
 LON .                         :Longitude
 LMF .          None           :Log Measured From
 DMF .            GL           :Driller Measured From
 PD  .          None           :Permanent Data
 PDEV.          None           :Elevation Permanent Data
 EKB .M         None           :Elevation Kelly Bushing
 ELEV.DF         550           :Elevation DF
 EGL .M         None           :Elevation Ground Level
 DRDP.           550           :Driller's Depth
 CASD.       8.2               :Casing Diameter
 CASB.            20           :Casing Bottom
 CASX.         steel           :Casing Type
 CAST.         0               :Casing Thickness
 TNOC.          None           :Time Circulation Stopped
 LOGU.       None              :Logging Unit
 RECB.         bscorland       :Recorded By
 OSR1.          None           :Other Services
 OSR2.          None           :Other Services
 OSR3.          None           :Other Services
 BS  .MM       5.875           :Bit Size
 MST .                         :Mean Surface Temperature
 TGRD.        0                :Temperature Gradiant
 MAGN.             0           :Magnetic Declination
 MDEN.      2.71               :Density Matrix
 MATR.       Dolomite          :Neutron Matrix
 DTMT.            54           :Delta T Matrix
 DTFL.                         :Delta T Fluid
 MUDS.               0         :Mud Sample Source
 MRS .           0             :Mud Resistivity
 MTP .           0             :Mud Temperature
 MFRS.                         :Resistivity Mud Filtrate
 MFTP.                         :Temperature Mud Filtrate
 MCRS.         0               :Resistivity Mud Cake
 MCTP.                         :Temperature Mud Cake
 FTYP.             0           :Fluid Type
 FD  .K/M3                     :Fluid Density
 DFV .S                        :Fluid Viscosity
 FPH .                         :Fuild PH
 ELCO.        2500             :Electron Cutoff
~Other Information
#MNEM.UNIT  Information      Description
#---------- ---------------  ------------------------
# -------------------------- 
~A DEPTH  GAMMA     CALIPER RES(SG)   POR(DEN) DEN(CDL) TEMP    DEL TEMP 
# ...
 551.300     0.000   3.366     0.000  -0.732   2.723     0.000  0.000    
 551.400     0.000   3.367     0.000   1.388   2.686     0.000  0.000    
 551.500     0.000   3.381     0.000  -5.101   2.797     0.000  0.000    
 551.600     0.000   3.379     0.000   6.691   2.596     0.000  0.000    
 551.700     0.000   3.355     0.000   3.480   2.650     0.000  0.000    
 551.800     0.000   3.358     0.000   4.223   2.638     0.000  0.000    
 551.900     0.000   3.368     0.000   0.737   2.697     0.000  0.000    
 552.000     0.000   3.369     0.000   4.800   2.628     0.000  0.000    
 552.100     0.000   3.371     0.000  -1.751   2.740     0.000  0.000    
 552.200     0.000   3.371     0.000   4.709   2.629     0.000  0.000    
 552.300     0.000   3.373     0.000   3.562   2.649     0.000  0.000    
 552.400     0.000   3.377     0.000  -1.245   2.731     0.000  0.000    
 552.500     0.000   3.380     0.000  -0.439   2.718     0.000  0.000    
 552.600     0.000   3.383     0.000   4.617   2.631     0.000  0.000    
 552.700     0.000   3.383     0.000   0.796   2.696     0.000  0.000    
 552.800     0.000   3.384     0.000   5.123   2.622     0.000  0.000    
 552.900     0.000   3.386     0.000   3.301   2.654     0.000  0.000    
 553.000     0.000   3.386     0.000   6.767   2.594     0.000  0.000    
 553.100     0.000   3.380     0.000   5.971   2.608     0.000  0.000    
 553.200     0.000   3.384     0.000  -3.484   2.770     0.000  0.000    
 553.300     0.000   3.386     0.000   2.021   2.675     0.000  0.000    
 553.400     0.000   3.392     0.000  -0.616   2.721     0.000  0.000    
 553.500     0.000   3.394     0.000  -2.240   2.748     0.000  0.000    
 553.600     0.000   3.393     0.000   5.080   2.623     0.000  0.000    
 553.700     0.000   3.393     0.000   1.592   2.683     0.000  0.000    
 553.800     0.000   3.391     0.000  -3.463   2.769     0.000  0.000    
 553.900     0.000   3.390     0.000   2.271   2.671     0.000  0.000    
 554.000     0.000   3.384     0.000   1.915   2.677     0.000  0.000    
 554.100     0.000   3.382     0.000   1.057   2.692     0.000  0.000    
 554.200     0.000   3.381     0.000   0.897   2.695     0.000  0.000    
 554.300     0.000   3.381     0.000   4.640   2.631     0.000  0.000    
 554.400     0.000   3.381     0.000   2.459   2.668     0.000  0.000    
 554.500     0.000   3.381     0.000  -1.720   2.739     0.000  0.000    
 554.600     0.000   3.381     0.000   2.789   2.662     0.000  0.000    
 554.700     0.000   3.381     0.000   0.391   2.703     0.000  0.000    
 554.800     0.000   3.380     0.000   2.003   2.676     0.000  0.000    
 554.900     0.000   3.380     0.000   3.910   2.643     0.000  0.000    
 555.000     0.000   3.379     0.000   1.085   2.691     0.000  0.000    
 555.100     0.000   3.379     0.000   6.302   2.602     0.000  0.000    
 555.200     0.000   3.379     0.000   3.391   2.652     0.000  0.000    
 555.300     0.000   3.380     0.000   0.236   2.706     0.000  0.000    
 555.400     0.000   3.375     0.000  -2.073   2.745     0.000  0.000    
 555.500     0.000   3.372     0.000  -2.388   2.751     0.000  0.000    
 555.600     0.000   3.366     0.000   1.802   2.679     0.000  0.000    
 555.700     0.000   3.367     0.000  -0.938   2.726     0.000  0.000    
 555.800     0.000   3.363     0.000   0.729   2.698     0.000  0.000    
 555.900     0.000   3.357     0.000   0.793   2.696     0.000  0.000    
 556.000     0.000   3.344     0.000   1.715   2.681     0.000  0.000    
 556.100     0.000   3.120     0.000   2.573   2.666     0.000  0.000    
 556.200     0.000   0.000     0.000   3.329   2.653     0.000  0.000    
 556.300     0.000   0.000     0.000   0.889   2.695     0.000  0.000    
 556.400     0.000   0.000     0.000   1.516   2.684     0.000  0.000    
 556.500     0.000   0.000     0.000   0.249   2.706     0.000  0.000    
 556.600     0.000   0.000     0.000   2.557   2.666     0.000  0.000    
 556.700     0.000   0.000     0.000   1.357   2.687     0.000  0.000    
 556.800     0.000   0.000     0.000  13.216   2.484     0.000  0.000    
 556.900     0.000   0.000     0.000   0.000   0.000     0.000  0.000    
 557.000     0.000   0.000     0.000   0.000   0.000     0.000  0.000    
