~Version Information
 VERS.                2.0:  CWLS LOG ASCII STANDARD -VERSION 2.0
 WRAP.                 NO:  ONE LINE PER DEPTH STEP
~WELL INFORMATION BLOCK
#MNEM.UNIT       DATA		            DESCRIPTION OF MNEMONIC
#---------    -------------            ------------------------
 STRT.FT  12.700                         :START DEPTH
 STOP.FT  552.200                        :STOP DEPTH
 STEP.FT  0.100                          :STEP    UP_HOLE  
 NULL.    -999.25                        :NULL VALUE
 COMP.                             usgs  :COMPANY
 WELL.   CL1                                                           :WELL
 FLD .                       Candy Lane  :FIELD
 LOC .  Lat 38.61717 Long 107.90174      :LOCATION
 CNTY.                         Montrose  :COUNTY
 STAT.                     CO            :STATE
 SRVC.           None                    :SERVICE COMPANY
 DATE.   11/10/2005                      :LOG DATE
 API .                                   :API NUMBER
 LIC .                                   :LICENSE NUMBER
~Curve Information Block
#MNEM.UNIT      API CODE     Curve Description
#---------    -------------  ------------------------
 DEPT     .FT        00 001 00 00          :  1  DEPTH   
 GAMMA    .CPS       00 310 00 00          :  2                GAMMA
 CALIPER  .INCH      00 280 00 00          :  3              CALIPER
~Parameter Information Block
#MNEM.UNIT   Information     Description
#---------- ---------------  ------------------------
 FILE.      ORIGINAL           :File Type
 FIID.      9074C              :File Type Identifier
 VERS.      3.58F              :System Version
 SER .      1                  :System Serial Number
 TRUK.      .601567            :Truck Calibration Number
 TOOL.         877             :Tool Serial Number
 TIME.      1245               :Time    HrHrMinMin
 LAT .                         :Latitude
 LON .                         :Longitude
 LMF .          None           :Log Measured From
 DMF .            GL           :Driller Measured From
 PD  .          None           :Permanent Data
 PDEV.          None           :Elevation Permanent Data
 EKB .M         None           :Elevation Kelly Bushing
 ELEV.DF         550           :Elevation DF
 EGL .M         None           :Elevation Ground Level
 DRDP.           550           :Driller's Depth
 CASD.       8.2               :Casing Diameter
 CASB.            20           :Casing Bottom
 CASX.         steel           :Casing Type
 CAST.         0               :Casing Thickness
 TNOC.          None           :Time Circulation Stopped
 LOGU.       None              :Logging Unit
 RECB.         bscorland       :Recorded By
 OSR1.          None           :Other Services
 OSR2.          None           :Other Services
 OSR3.          None           :Other Services
 BS  .MM       5.875           :Bit Size
 MST .                         :Mean Surface Temperature
 TGRD.        0                :Temperature Gradiant
 MAGN.             0           :Magnetic Declination
 MDEN.      2.71               :Density Matrix
 MATR.       Dolomite          :Neutron Matrix
 DTMT.            54           :Delta T Matrix
 DTFL.                         :Delta T Fluid
 MUDS.               0         :Mud Sample Source
 MRS .           0             :Mud Resistivity
 MTP .           0             :Mud Temperature
 MFRS.                         :Resistivity Mud Filtrate
 MFTP.                         :Temperature Mud Filtrate
 MCRS.         0               :Resistivity Mud Cake
 MCTP.                         :Temperature Mud Cake
 FTYP.             0           :Fluid Type
 FD  .K/M3                     :Fluid Density
 DFV .S                        :Fluid Viscosity
 FPH .                         :Fuild PH
 ELCO.        2500             :Electron Cutoff
~Other Information
#MNEM.UNIT  Information      Description
#---------- ---------------  ------------------------
# -------------------------- 
~A DEPTH  GAMMA     CALIPER 
# ...
 233.500   135.000   5.109  
 233.600   110.000   5.126  
 233.700   115.000   5.129  
 233.800   145.000   5.129  
 233.900   145.000   5.129  
 234.000   173.333   5.129  
 234.100   175.000   5.125  
 234.200   145.000   5.125  
 234.300   245.000   5.121  
 234.400   185.000   5.121  
 234.500   150.000   5.121  
 234.600   170.000   5.119  
 234.700   150.000   5.121  
 234.800   170.000   5.119  
 234.900   140.000   5.119  
 235.000   270.000   5.113  
 235.100   185.000   5.113  
 235.200   185.000   5.113  
 235.300   165.000   5.113  
 235.400   185.000   5.113  
 235.500   220.000   5.113  
 235.600   200.000   5.113  
 235.700   125.000   5.113  
 235.800   170.000   5.115  
 235.900   215.000   5.117  
 236.000   180.000   5.121  
 236.100   180.000   5.105  
 236.200   250.000   5.105  
 236.300   193.333   5.105  
 236.400   285.000   5.105  
 236.500   145.000   5.105  
 236.600   185.000   5.105  
 236.700   215.000   5.104  
 236.800   195.000   5.105  
 236.900   155.000   5.103  
 237.000   255.000   5.105  
 237.100   226.667   5.105  
 237.200   200.000   5.101  
 237.300   170.000   5.101  
 237.400   210.000   5.101  
 237.500   205.000   5.101  
 237.600   225.000   5.101  
 237.700   155.000   5.101  
 237.800   175.000   5.103  
 237.900   145.000   5.101  
 238.000   175.000   5.101  
 238.100   156.667   5.101  
 238.200   180.000   5.101  
 238.300   130.000   5.101  
 238.400   175.000   5.101  
 238.500   180.000   5.101  
 238.600   275.000   5.101  
 238.700   230.000   5.101  
 238.800   160.000   5.101  
 238.900   145.000   5.101  
 239.000   160.000   5.101  
 239.100   135.000   5.101  
 239.200   235.000   5.103  
 239.300   150.000   5.101  
 239.400   145.000   5.101  
 239.500   190.000   5.127  
 239.600   180.000   5.133  
 239.700   190.000   5.109  
 239.800   150.000   5.115  
 239.900   160.000   5.120  
 240.000   195.000   5.121  
 240.100   195.000   5.121  
 240.200   190.000   5.123  
 240.300   190.000   5.123  
 240.400   265.000   5.127  
 240.500   235.000   5.133  
 240.600   210.000   5.139  
 240.700   200.000   5.206  
 240.800   145.000   5.103  
 240.900   170.000   5.101  
 241.000   190.000   5.099  
 241.100   165.000   5.101  
 241.200   125.000   5.105  
 241.300   140.000   5.103  
 241.400   210.000   5.103  
 241.500   155.000   5.103  
 241.600   195.000   5.103  
 241.700   126.667   5.104  
 241.800   175.000   5.105  
 241.900   170.000   5.105  
 242.000   150.000   5.105  
 242.100   130.000   5.105  
 242.200   155.000   5.105  
 242.300   155.000   5.105  
 242.400   140.000   5.105  
 242.500   260.000   5.105  
 242.600   195.000   5.105  
 242.700   206.667   5.105  
 242.800   165.000   5.103  
 242.900   180.000   5.105  
 243.000   265.000   5.104  
 243.100   220.000   5.107  
 243.200   230.000   5.109  
 243.300   250.000   5.117  
 243.400   225.000   5.117  
 243.500   185.000   5.117  
 243.600   130.000   5.115  
 243.700   140.000   5.117  
 243.800   185.000   5.116  
 243.900   200.000   5.115  
 244.000   165.000   5.115  
 244.100   165.000   5.117  
 244.200   230.000   5.117  
 244.300   265.000   5.115  
 244.400   210.000   5.115  
 244.500   210.000   5.117  
 244.600   260.000   5.131  
 244.700   310.000   5.192  
 244.800   240.000   5.428  
 244.900   230.000   5.809  
 245.000   280.000   6.028  
 245.100   240.000   5.314  
 245.200   240.000   5.107  
 245.300   225.000   5.109  
 245.400   220.000   5.109  
 245.500   245.000   5.109  
 245.600   170.000   5.109  
 245.700   220.000   5.109  
 245.800   155.000   5.111  
 245.900   225.000   5.103  
 246.000   240.000   5.097  
 246.100   145.000   5.090  
 246.200   180.000   5.090  
 246.300   200.000   5.088  
 246.400   200.000   5.092  
 246.500   170.000   5.090  
 246.600   180.000   5.090  
 246.700   180.000   5.092  
 246.800   210.000   5.090  
 246.900   210.000   5.090  
 247.000   150.000   5.090  
 247.100   235.000   5.092  
 247.200   170.000   5.090  
 247.300   230.000   5.090  
 247.400   155.000   5.092  
 247.500   175.000   5.090  
 247.600   155.000   5.092  
 247.700   180.000   5.090  
 247.800   230.000   5.092  
 247.900   245.000   5.090  
 248.000   195.000   5.090  
 248.100   150.000   5.095  
 248.200   170.000   5.095  
 248.300   190.000   5.097  
 248.400   215.000   5.096  
 248.500   275.000   5.095  
 248.600   170.000   5.097  
 248.700   195.000   5.097  
 248.800   155.000   5.097  
 248.900   240.000   5.097  
 249.000   210.000   5.099  
 249.100   220.000   5.095  
 249.200   220.000   5.095  
 249.300   190.000   5.094  
 249.400   210.000   5.097  
 249.500   200.000   5.094  
 249.600   235.000   5.094  
 249.700   255.000   5.095  
 249.800   165.000   5.094  
 249.900   240.000   5.094  
 250.000   190.000   5.094  
 250.100   205.000   5.094  
 250.200   210.000   5.094  
 250.300   250.000   5.094  
 250.400   180.000   5.094  
 250.500   193.333   5.092  
 250.600   185.000   5.092  
 250.700   155.000   5.092  
 250.800   215.000   5.094  
 250.900   170.000   5.092  
 251.000   225.000   5.092  
 251.100   220.000   5.092  
 251.200   185.000   5.094  
 251.300   185.000   5.092  
 251.400   225.000   5.094  
 251.500   260.000   5.094  
 251.600   256.667   5.092  
 251.700   190.000   5.092  
 251.800   165.000   5.094  
 251.900   175.000   5.092  
 252.000   195.000   5.092  
 252.100   195.000   5.094  
 252.200   260.000   5.094  
 252.300   165.000   5.094  
 252.400   213.333   5.094  
 252.500   175.000   5.094  
 252.600   230.000   5.094  
 252.700   210.000   5.094  
 252.800   205.000   5.092  
 252.900   160.000   5.094  
 253.000   210.000   5.092  
 253.100   170.000   5.092  
 253.200   235.000   5.094  
 253.300   200.000   5.094  
 253.400   195.000   5.094  
 253.500   245.000   5.094  
 253.600   216.667   5.095  
 253.700   175.000   5.092  
 253.800   215.000   5.094  
 253.900   260.000   5.094  
 254.000   210.000   5.094  
 254.100   230.000   5.095  
 254.200   210.000   5.094  
 254.300   150.000   5.095  
 254.400   145.000   5.094  
 254.500   155.000   5.094  
 254.600   170.000   5.095  
 254.700   143.333   5.094  
 254.800   180.000   5.094  
 254.900   135.000   5.094  
 255.000   190.000   5.094  
 255.100   185.000   5.094  
 255.200   180.000   5.094  
 255.300   145.000   5.094  
 255.400   135.000   5.094  
 255.500   205.000   5.094  
 255.600   223.333   5.095  
 255.700   170.000   5.095  
 255.800   215.000   5.097  
 255.900   190.000   5.096  
 256.000   245.000   5.095  
 256.100   160.000   5.097  
 256.200   220.000   5.094  
 256.300   200.000   5.094  
 256.400   180.000   5.094  
 256.500   250.000   5.094  
 256.600   210.000   5.092  
 256.700   230.000   5.092  
 256.800   210.000   5.094  
 256.900   200.000   5.092  
 257.000   230.000   5.094  
 257.100   185.000   5.094  
 257.200   120.000   5.092  
 257.300   180.000   5.094  
 257.400   295.000   5.094  
 257.500   220.000   5.094  
 257.600   165.000   5.092  
 257.700   160.000   5.094  
 257.800   210.000   5.094  
 257.900   205.000   5.094  
 258.000   205.000   5.094  
 258.100   115.000   5.094  
 258.200   240.000   5.094  
 258.300   210.000   5.094  
 258.400   245.000   5.094  
 258.500   225.000   5.094  
 258.600   145.000   5.094  
 258.700   195.000   5.094  
 258.800   240.000   5.094  
 258.900   230.000   5.094  
 259.000   215.000   5.094  
 259.100   150.000   5.094  
 259.200   240.000   5.094  
 259.300   200.000   5.094  
 259.400   205.000   5.094  
 259.500   205.000   5.094  
 259.600   205.000   5.094  
 259.700   180.000   5.094  
 259.800   185.000   5.094  
 259.900   230.000   5.094  
 260.000   203.333   5.094  
 260.100   235.000   5.094  
 260.200   215.000   5.094  
 260.300   285.000   5.092  
 260.400   185.000   5.092  
 260.500   220.000   5.092  
 260.600   190.000   5.092  
 260.700   175.000   5.092  
 260.800   220.000   5.094  
 260.900   180.000   5.094  
 261.000   175.000   5.094  
