~Version Information
 VERS.                2.0:  CWLS LOG ASCII STANDARD -VERSION 2.0
 WRAP.                 NO:  ONE LINE PER DEPTH STEP
~WELL INFORMATION BLOCK
#MNEM.UNIT       DATA		            DESCRIPTION OF MNEMONIC
#---------    -------------            ------------------------
 STRT.FT  12.700                         :START DEPTH
 STOP.FT  552.200                        :STOP DEPTH
 STEP.FT  0.100                          :STEP    UP_HOLE  
 NULL.    -999.25                        :NULL VALUE
 COMP.                             usgs  :COMPANY
 WELL.   CL1                                                           :WELL
 FLD .                       Candy Lane  :FIELD
 LOC .  Lat 38.61717 Long 107.90174      :LOCATION
 CNTY.                         Montrose  :COUNTY
 STAT.                     CO            :STATE
 SRVC.           None                    :SERVICE COMPANY
 DATE.   11/10/2005                      :LOG DATE
 API .                                   :API NUMBER
 LIC .                                   :LICENSE NUMBER
~Curve Information Block
#MNEM.UNIT      API CODE     Curve Description
#---------    -------------  ------------------------
 DEPT     .FT        00 001 00 00          :  1  DEPTH   
 GAMMA    .CPS       00 310 00 00          :  2                GAMMA
 CALIPER  .INCH      00 280 00 00          :  3              CALIPER
~Parameter Information Block
#MNEM.UNIT   Information     Description
#---------- ---------------  ------------------------
 FILE.      ORIGINAL           :File Type
 FIID.      9074C              :File Type Identifier
 VERS.      3.58F              :System Version
 SER .      1                  :System Serial Number
 TRUK.      .601567            :Truck Calibration Number
 TOOL.         877             :Tool Serial Number
 TIME.      1245               :Time    HrHrMinMin
 LAT .                         :Latitude
 LON .                         :Longitude
 LMF .          None           :Log Measured From
 DMF .            GL           :Driller Measured From
 PD  .          None           :Permanent Data
 PDEV.          None           :Elevation Permanent Data
 EKB .M         None           :Elevation Kelly Bushing
 ELEV.DF         550           :Elevation DF
 EGL .M         None           :Elevation Ground Level
 DRDP.           550           :Driller's Depth
 CASD.       8.2               :Casing Diameter
 CASB.            20           :Casing Bottom
 CASX.         steel           :Casing Type
 CAST.         0               :Casing Thickness
 TNOC.          None           :Time Circulation Stopped
 LOGU.       None              :Logging Unit
 RECB.         bscorland       :Recorded By
 OSR1.          None           :Other Services
 OSR2.          None           :Other Services
 OSR3.          None           :Other Services
 BS  .MM       5.875           :Bit Size
 MST .                         :Mean Surface Temperature
 TGRD.        0                :Temperature Gradiant
 MAGN.             0           :Magnetic Declination
 MDEN.      2.71               :Density Matrix
 MATR.       Dolomite          :Neutron Matrix
 DTMT.            54           :Delta T Matrix
 DTFL.                         :Delta T Fluid
 MUDS.               0         :Mud Sample Source
 MRS .           0             :Mud Resistivity
 MTP .           0             :Mud Temperature
 MFRS.                         :Resistivity Mud Filtrate
 MFTP.                         :Temperature Mud Filtrate
 MCRS.         0               :Resistivity Mud Cake
 MCTP.                         :Temperature Mud Cake
 FTYP.             0           :Fluid Type
 FD  .K/M3                     :Fluid Density
 DFV .S                        :Fluid Viscosity
 FPH .                         :Fuild PH
 ELCO.        2500             :Electron Cutoff
~Other Information
#MNEM.UNIT  Information      Description
#---------- ---------------  ------------------------
# -------------------------- 
~A DEPTH  GAMMA     CALIPER 
  12.700     0.000   0.000  
  12.800     0.000   0.000  
  12.900     0.000   0.000  
  13.000     0.000   0.000  
  13.100     0.000   0.000  
  13.200     0.000   0.000  
  13.300   150.000   0.000  
  13.400   135.000   0.000  
  13.500   110.000   0.000  
  13.600   150.000   0.000  
  13.700   155.000   0.000  
  13.800   116.667   0.000  
  13.900   100.000   0.000  
  14.000   130.000   0.000  
  14.100   110.000   0.000  
  14.200   140.000   0.000  
  14.300    80.000   0.000  
  14.400   125.000   0.000  
  14.500   150.000   0.000  
  14.600   140.000   0.000  
  14.700   150.000   0.000  
  14.800    70.000   0.000  
  14.900   125.000   0.000  
  15.000    90.000   0.000  
  15.100    70.000   0.000  
  15.200   150.000   0.000  
  15.300   105.000   0.000  
  15.400   145.000   0.000  
  15.500   125.000   0.000  
  15.600   105.000   0.000  
  15.700   150.000   0.000  
  15.800    95.000   0.000  
  15.900   125.000   0.000  
  16.000    90.000   0.000  
  16.100   130.000   0.000  
  16.200   135.000   0.000  
  16.300    86.667   0.000  
  16.400   145.000   0.000  
  16.500    95.000   0.000  
  16.600   130.000   0.000  
  16.700   130.000   0.000  
  16.800   200.000   0.000  
  16.900   135.000   0.000  
  17.000   165.000   0.000  
  17.100   135.000   0.000  
  17.200   120.000   0.000  
  17.300   140.000   0.000  
  17.400   140.000   0.000  
  17.500   100.000   0.000  
  17.600    90.000   0.000  
  17.700   130.000   0.000  
  17.800   120.000   0.000  
  17.900   105.000   0.000  
  18.000   155.000   0.000  
  18.100   120.000   0.000  
  18.200   170.000   0.000  
  18.300   105.000   0.000  
  18.400    80.000   0.000  
  18.500   143.333   0.000  
  18.600    90.000   0.000  
  18.700   140.000   0.000  
  18.800   135.000   0.000  
  18.900   110.000   0.000  
  19.000   135.000   0.000  
  19.100   140.000   0.000  
  19.200   145.000   0.000  
  19.300   130.000   0.000  
  19.400   150.000   0.000  
  19.500   120.000   0.000  
  19.600   105.000   0.000  
  19.700   155.000   0.000  
  19.800   130.000   0.000  
  19.900   143.333   0.000  
  20.000   125.000   6.039  
  20.100   100.000   6.039  
  20.200   130.000   6.039  
  20.300   130.000   6.039  
  20.400   265.000   6.043  
  20.500   200.000   6.043  
  20.600   150.000   6.043  
  20.700   185.000   6.043  
  20.800   166.667   6.113  
  20.900   140.000   6.404  
  21.000   190.000   6.519  
  21.100   115.000   6.589  
  21.200   155.000   6.700  
  21.300   145.000   6.378  
  21.400   160.000   6.254  
  21.500   190.000   6.282  
  21.600   170.000   6.117  
  21.700   115.000   5.931  
  21.800   105.000   5.815  
  21.900   120.000   5.740  
  22.000   165.000   5.752  
  22.100    95.000   5.894  
  22.200   160.000   5.764  
  22.300   160.000   5.758  
  22.400   180.000   5.853  
  22.500   160.000   5.856  
  22.600   165.000   5.963  
  22.700   155.000   6.080  
  22.800   160.000   5.949  
  22.900   115.000   5.937  
  23.000   195.000   5.660  
  23.100   230.000   5.438  
  23.200   170.000   5.485  
  23.300   150.000   5.326  
  23.400   155.000   5.365  
  23.500   155.000   5.563  
  23.600   170.000   5.860  
  23.700   155.000   6.180  
  23.800   190.000   6.394  
  23.900   200.000   6.365  
  24.000   115.000   6.330  
  24.100   190.000   6.232  
  24.200   190.000   6.374  
  24.300   240.000   6.156  
  24.400   210.000   6.131  
  24.500   190.000   5.819  
  24.600   170.000   5.900  
  24.700   165.000   5.737  
  24.800   105.000   5.766  
  24.900   175.000   5.442  
  25.000   160.000   5.310  
  25.100   140.000   5.402  
  25.200   170.000   5.373  
  25.300   190.000   5.412  
  25.400   205.000   5.467  
  25.500   135.000   5.442  
  25.600   180.000   5.489  
  25.700   170.000   5.436  
  25.800   195.000   5.328  
  25.900   220.000   5.343  
  26.000   110.000   5.471  
  26.100   130.000   5.432  
  26.200   140.000   5.402  
  26.300   160.000   5.379  
  26.400   175.000   5.377  
  26.500   155.000   5.438  
  26.600   170.000   5.475  
  26.700   165.000   5.489  
  26.800   205.000   5.467  
  26.900   125.000   5.357  
  27.000   216.667   5.274  
  27.100   135.000   5.233  
  27.200   230.000   5.292  
  27.300   200.000   5.446  
  27.400   160.000   5.518  
  27.500   205.000   5.356  
  27.600   195.000   5.310  
  27.700   135.000   5.188  
  27.800   150.000   5.184  
  27.900   185.000   5.213  
  28.000   155.000   5.298  
  28.100   170.000   5.284  
  28.200   205.000   5.269  
  28.300   220.000   5.302  
  28.400   150.000   5.282  
  28.500   145.000   5.235  
  28.600   183.333   5.272  
  28.700   195.000   5.353  
  28.800   150.000   5.349  
  28.900   175.000   5.253  
  29.000   195.000   5.233  
  29.100   215.000   5.269  
  29.200   195.000   5.371  
  29.300   180.000   5.243  
  29.400   195.000   5.227  
  29.500   190.000   5.265  
  29.600   163.333   5.333  
  29.700   215.000   5.302  
  29.800   200.000   5.265  
  29.900   220.000   5.261  
  30.000   185.000   5.265  
  30.100   160.000   5.263  
  30.200   115.000   5.249  
  30.300   180.000   5.233  
  30.400   215.000   5.212  
  30.500   230.000   5.202  
  30.600   165.000   5.190  
  30.700   170.000   5.174  
  30.800   180.000   5.158  
  30.900   185.000   5.135  
  31.000   175.000   5.137  
  31.100   200.000   5.133  
  31.200   180.000   5.125  
  31.300   155.000   5.128  
  31.400   170.000   5.135  
  31.500   170.000   5.149  
  31.600   120.000   5.137  
  31.700   140.000   5.133  
  31.800   200.000   5.131  
  31.900   220.000   5.133  
  32.000   195.000   5.133  
  32.100   120.000   5.129  
  32.200   200.000   5.133  
  32.300   155.000   5.135  
  32.400   230.000   5.125  
  32.500   205.000   5.125  
  32.600   165.000   5.125  
  32.700   185.000   5.128  
  32.800   210.000   5.127  
  32.900   235.000   5.129  
  33.000   170.000   5.135  
  33.100   195.000   5.141  
  33.200   220.000   5.147  
  33.300   193.333   5.129  
  33.400   195.000   5.125  
  33.500   175.000   5.123  
  33.600   205.000   5.115  
  33.700   135.000   5.116  
  33.800   230.000   5.113  
  33.900   180.000   5.113  
  34.000   155.000   5.113  
  34.100   130.000   5.113  
  34.200   160.000   5.115  
  34.300   165.000   5.113  
  34.400   215.000   5.113  
  34.500   160.000   5.113  
  34.600   165.000   5.115  
  34.700   180.000   5.117  
  34.800   155.000   5.117  
  34.900   180.000   5.125  
  35.000   135.000   5.135  
  35.100   125.000   5.137  
  35.200   180.000   5.141  
  35.300   145.000   5.137  
  35.400   140.000   5.135  
  35.500   170.000   5.133  
  35.600   165.000   5.131  
  35.700   105.000   5.131  
  35.800   170.000   5.121  
  35.900   170.000   5.111  
  36.000   170.000   5.113  
  36.100   190.000   5.113  
  36.200   155.000   5.113  
  36.300   165.000   5.113  
  36.400   165.000   5.111  
  36.500   195.000   5.115  
  36.600   160.000   5.117  
  36.700   165.000   5.115  
  36.800   150.000   5.113  
  36.900   175.000   5.117  
  37.000   155.000   5.121  
  37.100   160.000   5.123  
  37.200   165.000   5.125  
  37.300   190.000   5.125  
  37.400   153.333   5.123  
  37.500   130.000   5.120  
  37.600   200.000   5.119  
  37.700   160.000   5.115  
  37.800   185.000   5.113  
  37.900   140.000   5.105  
  38.000   165.000   5.105  
  38.100   190.000   5.105  
  38.200   150.000   5.103  
  38.300   175.000   5.103  
  38.400   120.000   5.105  
  38.500   175.000   5.101  
  38.600   215.000   5.105  
  38.700   165.000   5.107  
  38.800   195.000   5.111  
  38.900   160.000   5.113  
  39.000   195.000   5.115  
  39.100   125.000   5.115  
  39.200   200.000   5.121  
  39.300   190.000   5.121  
  39.400   175.000   5.121  
  39.500   126.667   5.119  
  39.600   165.000   5.113  
  39.700   150.000   5.113  
  39.800   180.000   5.113  
  39.900   180.000   5.109  
  40.000   170.000   5.109  
  40.100   180.000   5.109  
  40.200   130.000   5.111  
