~Version Information
 VERS.                2.0:  CWLS LOG ASCII STANDARD -VERSION 2.0
 WRAP.                 NO:  ONE LINE PER DEPTH STEP
~WELL INFORMATION BLOCK
#MNEM.UNIT       DATA		            DESCRIPTION OF MNEMONIC
#---------    -------------            ------------------------
 STRT.FT  12.700                         :START DEPTH
 STOP.FT  552.200                        :STOP DEPTH
 STEP.FT  0.100                          :STEP    UP_HOLE  
 NULL.    -999.25                        :NULL VALUE
 COMP.                             usgs  :COMPANY
 WELL.   CL1                                                           :WELL
 FLD .                       Candy Lane  :FIELD
 LOC .  Lat 38.61717 Long 107.90174      :LOCATION
 CNTY.                         Montrose  :COUNTY
 STAT.                     CO            :STATE
 SRVC.           None                    :SERVICE COMPANY
 DATE.   11/10/2005                      :LOG DATE
 API .                                   :API NUMBER
 LIC .                                   :LICENSE NUMBER
~Curve Information Block
#MNEM.UNIT      API CODE     Curve Description
#---------    -------------  ------------------------
 DEPT     .FT        00 001 00 00          :  1  DEPTH   
 GAMMA    .CPS       00 310 00 00          :  2                GAMMA
 CALIPER  .INCH      00 280 00 00          :  3              CALIPER
~Parameter Information Block
#MNEM.UNIT   Information     Description
#---------- ---------------  ------------------------
 FILE.      ORIGINAL           :File Type
 FIID.      9074C              :File Type Identifier
 VERS.      3.58F              :System Version
 SER .      1                  :System Serial Number
 TRUK.      .601567            :Truck Calibration Number
 TOOL.         877             :Tool Serial Number
 TIME.      1245               :Time    HrHrMinMin
 LAT .                         :Latitude
 LON .                         :Longitude
 LMF .          None           :Log Measured From
 DMF .            GL           :Driller Measured From
 PD  .          None           :Permanent Data
 PDEV.          None           :Elevation Permanent Data
 EKB .M         None           :Elevation Kelly Bushing
 ELEV.DF         550           :Elevation DF
 EGL .M         None           :Elevation Ground Level
 DRDP.           550           :Driller's Depth
 CASD.       8.2               :Casing Diameter
 CASB.            20           :Casing Bottom
 CASX.         steel           :Casing Type
 CAST.         0               :Casing Thickness
 TNOC.          None           :Time Circulation Stopped
 LOGU.       None              :Logging Unit
 RECB.         bscorland       :Recorded By
 OSR1.          None           :Other Services
 OSR2.          None           :Other Services
 OSR3.          None           :Other Services
 BS  .MM       5.875           :Bit Size
 MST .                         :Mean Surface Temperature
 TGRD.        0                :Temperature Gradiant
 MAGN.             0           :Magnetic Declination
 MDEN.      2.71               :Density Matrix
 MATR.       Dolomite          :Neutron Matrix
 DTMT.            54           :Delta T Matrix
 DTFL.                         :Delta T Fluid
 MUDS.               0         :Mud Sample Source
 MRS .           0             :Mud Resistivity
 MTP .           0             :Mud Temperature
 MFRS.                         :Resistivity Mud Filtrate
 MFTP.                         :Temperature Mud Filtrate
 MCRS.         0               :Resistivity Mud Cake
 MCTP.                         :Temperature Mud Cake
 FTYP.             0           :Fluid Type
 FD  .K/M3                     :Fluid Density
 DFV .S                        :Fluid Viscosity
 FPH .                         :Fuild PH
 ELCO.        2500             :Electron Cutoff
~Other Information
#MNEM.UNIT  Information      Description
#---------- ---------------  ------------------------
# -------------------------- 
~A DEPTH  GAMMA     CALIPER 
# ...
 123.100   175.000   5.186  
 123.200   250.000   5.190  
 123.300   190.000   5.192  
 123.400   220.000   5.196  
 123.500   255.000   5.196  
 123.600   260.000   5.202  
 123.700   200.000   5.212  
 123.800   180.000   5.229  
 123.900   260.000   5.280  
 124.000   205.000   5.284  
 124.100   190.000   5.202  
 124.200   220.000   5.182  
 124.300   143.333   5.180  
 124.400   200.000   5.184  
 124.500   190.000   5.184  
 124.600   250.000   5.186  
 124.700   155.000   5.190  
 124.800   120.000   5.202  
 124.900   165.000   5.204  
 125.000   160.000   5.206  
 125.100   200.000   5.213  
 125.200   155.000   5.217  
 125.300   175.000   5.225  
 125.400   173.333   5.235  
 125.500   175.000   5.233  
 125.600   155.000   5.233  
 125.700   155.000   5.233  
 125.800   135.000   5.235  
 125.900   145.000   5.235  
 126.000   140.000   5.235  
 126.100   120.000   5.233  
 126.200   130.000   5.235  
 126.300   160.000   5.236  
 126.400   155.000   5.241  
 126.500   105.000   5.272  
 126.600   155.000   5.353  
 126.700   140.000   5.381  
 126.800   145.000   5.420  
 126.900   115.000   5.467  
 127.000   125.000   5.471  
 127.100   175.000   5.367  
 127.200   185.000   5.379  
 127.300   155.000   5.324  
 127.400   155.000   5.227  
 127.500   145.000   5.222  
 127.600   235.000   5.233  
 127.700   140.000   5.233  
 127.800   135.000   5.237  
 127.900   185.000   5.245  
 128.000   170.000   5.263  
 128.100   160.000   5.212  
 128.200   150.000   5.200  
 128.300   125.000   5.196  
 128.400   150.000   5.192  
 128.500   205.000   5.182  
 128.600   150.000   5.168  
 128.700   165.000   5.164  
 128.800   145.000   5.166  
 128.900   150.000   5.164  
 129.000   205.000   5.162  
 129.100   170.000   5.164  
 129.200   170.000   5.164  
 129.300   175.000   5.174  
 129.400   125.000   5.190  
 129.500   175.000   5.198  
 129.600   210.000   5.196  
 129.700   195.000   5.212  
 129.800   185.000   5.237  
 129.900   165.000   5.265  
 130.000   205.000   5.328  
 130.100   200.000   5.361  
 130.200   190.000   5.343  
 130.300   223.333   5.345  
 130.400   180.000   5.387  
 130.500   175.000   5.381  
 130.600   200.000   5.302  
 130.700   180.000   5.265  
 130.800   150.000   5.198  
 130.900   215.000   5.188  
 131.000   135.000   5.187  
 131.100   170.000   5.190  
 131.200   115.000   5.196  
 131.300   115.000   5.196  
 131.400   130.000   5.213  
 131.500   183.333   5.210  
 131.600   150.000   5.202  
 131.700   140.000   5.215  
 131.800   165.000   5.237  
 131.900   165.000   5.245  
 132.000   100.000   5.272  
 132.100   135.000   5.341  
 132.200   165.000   5.392  
 132.300   110.000   5.388  
 132.400   195.000   5.396  
 132.500   125.000   5.447  
 132.600   166.667   5.577  
 132.700   140.000   5.550  
 132.800   165.000   5.514  
 132.900   190.000   5.351  
 133.000   155.000   5.399  
 133.100   155.000   5.280  
 133.200   130.000   5.186  
 133.300   155.000   5.160  
 133.400   165.000   5.160  
 133.500   150.000   5.158  
 133.600   200.000   5.158  
 133.700   150.000   5.160  
 133.800   135.000   5.158  
 133.900   135.000   5.160  
 134.000   166.667   5.156  
 134.100   105.000   5.160  
 134.200   130.000   5.156  
 134.300   140.000   5.160  
 134.400   175.000   5.158  
 134.500   155.000   5.160  
 134.600   150.000   5.156  
 134.700   165.000   5.160  
 134.800   205.000   5.156  
 134.900   153.333   5.160  
 135.000   155.000   5.162  
 135.100   125.000   5.168  
 135.200   175.000   5.170  
 135.300   175.000   5.170  
 135.400   140.000   5.170  
 135.500   155.000   5.170  
 135.600   145.000   5.172  
 135.700   135.000   5.170  
 135.800   175.000   5.172  
 135.900   135.000   5.172  
 136.000   105.000   5.172  
 136.100   160.000   5.172  
 136.200   120.000   5.172  
 136.300   155.000   5.172  
 136.400   156.667   5.172  
 136.500   155.000   5.172  
 136.600   210.000   5.176  
 136.700   155.000   5.174  
 136.800   175.000   5.172  
 136.900   160.000   5.172  
 137.000   190.000   5.175  
 137.100   190.000   5.176  
 137.200   185.000   5.176  
 137.300   235.000   5.176  
 137.400   190.000   5.178  
 137.500   186.667   5.176  
 137.600   165.000   5.176  
 137.700   190.000   5.176  
 137.800   170.000   5.174  
 137.900   170.000   5.170  
 138.000   210.000   5.164  
 138.100   110.000   5.162  
 138.200   205.000   5.164  
 138.300   145.000   5.162  
 138.400   180.000   5.164  
 138.500   185.000   5.164  
 138.600   185.000   5.164  
 138.700   150.000   5.164  
 138.800   170.000   5.164  
 138.900   170.000   5.170  
 139.000   160.000   5.174  
 139.100   200.000   5.176  
 139.200   155.000   5.180  
 139.300   195.000   5.181  
 139.400   185.000   5.190  
 139.500   225.000   5.194  
 139.600   165.000   5.194  
 139.700   135.000   5.198  
 139.800   150.000   5.200  
 139.900   180.000   5.202  
 140.000   200.000   5.202  
 140.100   173.333   5.202  
 140.200   145.000   5.200  
 140.300   195.000   5.198  
 140.400   120.000   5.190  
 140.500   130.000   5.192  
 140.600   180.000   5.190  
 140.700   125.000   5.188  
 140.800   200.000   5.188  
 140.900   140.000   5.182  
 141.000   160.000   5.180  
 141.100   155.000   5.178  
 141.200   130.000   5.170  
 141.300   160.000   5.168  
 141.400   150.000   5.166  
 141.500   175.000   5.168  
 141.600   170.000   5.163  
 141.700   185.000   5.154  
 141.800   190.000   5.153  
 141.900   140.000   5.153  
 142.000   175.000   5.149  
 142.100   115.000   5.149  
 142.200   146.667   5.143  
 142.300   125.000   5.145  
 142.400   220.000   5.145  
 142.500   115.000   5.145  
 142.600   205.000   5.143  
 142.700   125.000   5.145  
 142.800   180.000   5.145  
 142.900   165.000   5.145  
 143.000   115.000   5.145  
 143.100   185.000   5.147  
 143.200   205.000   5.153  
 143.300   200.000   5.154  
 143.400   130.000   5.154  
 143.500   145.000   5.153  
 143.600   115.000   5.153  
 143.700   130.000   5.215  
 143.800   120.000   5.154  
 143.900   140.000   5.153  
 144.000   200.000   5.153  
 144.100   215.000   5.156  
 144.200   195.000   5.156  
 144.300   183.333   5.162  
 144.400   155.000   5.172  
 144.500   220.000   5.172  
 144.600   205.000   5.176  
 144.700   170.000   5.178  
 144.800   190.000   5.178  
 144.900   145.000   5.182  
 145.000   170.000   5.178  
 145.100   230.000   5.176  
 145.200   100.000   5.176  
 145.300    85.000   5.176  
 145.400   205.000   5.176  
 145.500   170.000   5.178  
 145.600   165.000   5.176  
 145.700   170.000   5.174  
 145.800   126.667   5.174  
 145.900   170.000   5.178  
 146.000   190.000   5.176  
 146.100   170.000   5.176  
 146.200   120.000   5.176  
 146.300   140.000   5.172  
 146.400   180.000   5.170  
 146.500   115.000   5.182  
 146.600   145.000   5.208  
 146.700   190.000   5.162  
 146.800   110.000   5.137  
 146.900   115.000   5.135  
 147.000   110.000   5.133  
 147.100   175.000   5.133  
 147.200   120.000   5.133  
 147.300   145.000   5.133  
 147.400   110.000   5.133  
 147.500   145.000   5.133  
 147.600   160.000   5.133  
 147.700   145.000   5.133  
 147.800    90.000   5.133  
 147.900   185.000   5.133  
 148.000   130.000   5.135  
 148.100   175.000   5.133  
 148.200   145.000   5.133  
 148.300   150.000   5.133  
 148.400   155.000   5.133  
 148.500   120.000   5.135  
 148.600   105.000   5.133  
 148.700    65.000   5.133  
 148.800   150.000   5.133  
 148.900    90.000   5.132  
 149.000   135.000   5.133  
 149.100   175.000   5.133  
 149.200   113.333   5.133  
 149.300    95.000   5.133  
 149.400    90.000   5.133  
 149.500   150.000   5.135  
 149.600   125.000   5.139  
 149.700   130.000   5.149  
 149.800   125.000   5.170  
 149.900   155.000   5.202  
 150.000   120.000   5.276  
 150.100   126.667   5.255  
 150.200   180.000   5.253  
 150.300    95.000   5.198  
 150.400   155.000   5.212  
 150.500   130.000   5.172  
 150.600   150.000   5.141  
