~Version Information
 VERS.                2.0:  CWLS LOG ASCII STANDARD -VERSION 2.0
 WRAP.                 NO:  ONE LINE PER DEPTH STEP
~WELL INFORMATION BLOCK
#MNEM.UNIT       DATA		            DESCRIPTION OF MNEMONIC
#---------    -------------            ------------------------
 STRT.FT  6.300                          :START DEPTH
 STOP.FT  557.000                        :STOP DEPTH
 STEP.FT  0.100                          :STEP    UP_HOLE  
 NULL.    -999.25                        :NULL VALUE
 COMP.                             usgs  :COMPANY
 WELL.   CL1                                                           :WELL
 FLD .                       Candy Lane  :FIELD
 LOC . Lat 38.61717 Long 107.90174       :LOCATION
 CNTY.                         Montrose  :COUNTY
 STAT.                     CO            :STATE
 SRVC.           None                    :SERVICE COMPANY
 DATE.   11/10/2005                      :LOG DATE
 API .                                   :API NUMBER
 LIC .                                   :LICENSE NUMBER
~Curve Information Block
#MNEM.UNIT      API CODE     Curve Description
#---------    -------------  ------------------------
 DEPT     .FT        00 001 00 00          :  1  DEPTH   
 GAMMA    .API-GR    00 310 00 00          :  2                GAMMA
 CALIPER  .INCH      00 280 00 00          :  3              CALIPER
 RES(SG)  .OHM-M     00 220 00 00          :  4              RES(SG)
 POR(DEN) .PERCENT   00 890 00 00          :  5             POR(DEN)
 DEN(CDL) .G/CC      00 350 00 00          :  6             DEN(CDL)
 TEMP     .DEG F     00 660 00 00          :  7                 TEMP
 DEL TEMP .DEG F     00 000 00 00          :  8             DEL TEMP
~Parameter Information Block
#MNEM.UNIT   Information     Description
#---------- ---------------  ------------------------
 FILE.      ORIGINAL           :File Type
 FIID.      9139A              :File Type Identifier
 VERS.      3.58F              :System Version
 SER .      1                  :System Serial Number
 TRUK.      .601567            :Truck Calibration Number
 TOOL.        1239             :Tool Serial Number
 TIME.      1635               :Time    HrHrMinMin
 LAT .                         :Latitude
 LON .                         :Longitude
 LMF .          None           :Log Measured From
 DMF .            GL           :Driller Measured From
 PD  .          None           :Permanent Data
 PDEV.          None           :Elevation Permanent Data
 EKB .M         None           :Elevation Kelly Bushing
 ELEV.DF         550           :Elevation DF
 EGL .M         None           :Elevation Ground Level
 DRDP.           550           :Driller's Depth
 CASD.       8.2               :Casing Diameter
 CASB.            20           :Casing Bottom
 CASX.         steel           :Casing Type
 CAST.         0               :Casing Thickness
 TNOC.          None           :Time Circulation Stopped
 LOGU.       None              :Logging Unit
 RECB.         bscorland       :Recorded By
 OSR1.          None           :Other Services
 OSR2.          None           :Other Services
 OSR3.          None           :Other Services
 BS  .MM       5.875           :Bit Size
 MST .                         :Mean Surface Temperature
 TGRD.        0                :Temperature Gradiant
 MAGN.             0           :Magnetic Declination
 MDEN.      2.71               :Density Matrix
 MATR.       Dolomite          :Neutron Matrix
 DTMT.            54           :Delta T Matrix
 DTFL.                         :Delta T Fluid
 MUDS.               0         :Mud Sample Source
 MRS .           0             :Mud Resistivity
 MTP .           0             :Mud Temperature
 MFRS.                         :Resistivity Mud Filtrate
 MFTP.                         :Temperature Mud Filtrate
 MCRS.         0               :Resistivity Mud Cake
 MCTP.                         :Temperature Mud Cake
 FTYP.             0           :Fluid Type
 FD  .K/M3                     :Fluid Density
 DFV .S                        :Fluid Viscosity
 FPH .                         :Fuild PH
 ELCO.        2500             :Electron Cutoff
~Other Information
#MNEM.UNIT  Information      Description
#---------- ---------------  ------------------------
# -------------------------- 
~A DEPTH  GAMMA     CALIPER RES(SG)   POR(DEN) DEN(CDL) TEMP    DEL TEMP 
# ...
 409.600   115.262   3.420    10.183   3.754   2.646    67.704  -0.018   
 409.700   119.947   3.419     9.689   4.414   2.635    67.704  -0.029   
 409.800    77.778   3.424     9.608  -5.514   2.804    67.705  -0.034   
 409.900   176.172   3.421     9.608   5.941   2.608    67.705  -0.017   
 410.000   143.374   3.419    10.014   4.265   2.637    67.711  -0.024   
 410.100   101.205   3.419    10.682   5.213   2.621    67.716  -0.024   
 410.200   138.689   3.418    10.483   4.999   2.625    67.719  -0.030   
 410.300   115.262   3.419     9.465   1.141   2.690    67.716  -0.028   
 410.400    87.149   3.421     9.152   3.022   2.658    67.716  -0.021   
 410.500   157.430   3.421     9.095   3.685   2.647    67.727  -0.032   
 410.600   143.374   3.424     9.185   1.738   2.680    67.723  -0.026   
 410.700    73.093   3.424     9.258  -0.981   2.727    67.734  -0.013   
 410.800   143.374   3.423     9.458   0.421   2.703    67.740  -0.022   
 410.900   115.262   3.421     9.330   0.202   2.707    67.728  -0.012   
 411.000   110.576   3.417     9.301   1.840   2.679    67.740  -0.011   
 411.100   124.632   3.416     9.396   3.393   2.652    67.742  -0.012   
 411.200   143.374   3.412     9.556   1.703   2.681    67.746  -0.021   
 411.300   138.689   3.410     9.620  -2.912   2.760    67.744  -0.011   
 411.400   101.205   3.415     9.880   6.934   2.591    67.748  -0.007   
 411.500   123.071   3.414    10.614  -0.010   2.710    67.754  -0.013   
 411.600   148.060   3.412    10.080   0.574   2.700    67.761  -0.018   
 411.700   148.060   3.412     9.782   3.435   2.651    67.753  -0.025   
 411.800   129.318   3.412     9.579   3.665   2.647    67.750  -0.021   
 411.900   134.003   3.413     9.582   2.473   2.668    67.752  -0.025   
 412.000    87.149   3.411     9.422   4.393   2.635    67.753  -0.032   
 412.100   119.947   3.409     9.461  -1.071   2.728    67.758  -0.017   
 412.200   124.632   3.412     9.600   4.825   2.627    67.765  -0.022   
 412.300   101.205   3.416     9.588   7.882   2.575    67.758  -0.018   
 412.400   124.632   3.417    10.108  -0.584   2.720    67.761  -0.008   
 412.500    73.093   3.417    10.327   1.968   2.676    67.774  -0.008   
 412.600    91.834   3.417     9.988   1.535   2.684    67.771  -0.012   
 412.700   110.576   3.416     9.570  -4.020   2.779    67.775  -0.026   
 412.800   180.858   3.417     9.591   1.347   2.687    67.773  -0.014   
 412.900    96.520   3.419     9.288   2.384   2.669    67.778  0.001    
 413.000   119.947   3.419     9.232   2.913   2.660    67.790  -0.012   
 413.100    91.834   3.418     9.555  -3.683   2.773    67.782  -0.018   
 413.200   115.262   3.417    11.055  -0.089   2.712    67.780  -0.026   
 413.300    91.834   3.416    13.115  -2.036   2.745    67.779  -0.011   
 413.400   129.318   3.417    13.251   2.872   2.661    67.782  -0.020   
 413.500   166.801   3.416    14.058   4.189   2.638    67.779  -0.020   
 413.600   152.745   3.414    14.525   5.494   2.616    67.787  0.001    
 413.700   143.374   3.415    14.178  -4.293   2.783    67.799  -0.017   
 413.800   138.689   3.418    13.625   1.720   2.681    67.792  -0.018   
 413.900   138.689   3.421    13.218  -1.004   2.727    67.788  0.000    
 414.000   148.060   3.423    12.786   1.941   2.677    67.794  -0.016   
 414.100    87.149   3.418    12.311   3.317   2.653    67.798  -0.009   
 414.200    91.834   3.420    11.899  -1.434   2.735    67.806  -0.028   
 414.300   101.205   3.418    11.136   0.760   2.697    67.792  -0.018   
 414.400   152.745   3.417     9.597   2.167   2.673    67.799  -0.017   
 414.500   115.262   3.417     8.828  -0.957   2.726    67.807  -0.033   
 414.600   129.318   3.415     9.265   1.817   2.679    67.798  -0.022   
 414.700   134.003   3.416    10.103   3.279   2.654    67.810  -0.030   
 414.800   119.947   3.415    10.593   1.453   2.685    67.807  -0.047   
 414.900   124.632   3.416    10.536  -4.434   2.786    67.794  -0.030   
 415.000   105.891   3.416     9.894   2.111   2.674    67.814  -0.034   
 415.100   110.576   3.416     9.690   5.086   2.623    67.815  -0.018   
 415.200   119.947   3.420     9.653   0.347   2.704    67.820  -0.032   
 415.300   129.318   3.420    10.169   2.271   2.671    67.817  -0.038   
 415.400   134.003   3.421     9.885   4.130   2.639    67.824  -0.028   
 415.500    96.520   3.425    10.443   5.820   2.610    67.831  -0.025   
 415.600   171.487   3.426    10.608  -0.156   2.713    67.832  -0.029   
 415.700   115.262   3.429     9.938  -0.075   2.711    67.837  -0.022   
 415.800   190.228   3.430     9.597   1.378   2.686    67.841  -0.024   
 415.900   105.891   3.427    10.575   0.765   2.697    67.844  -0.020   
 416.000   166.801   3.430    10.727   3.960   2.642    67.849  -0.026   
 416.100   101.205   3.432    10.883  -1.980   2.744    67.839  -0.024   
 416.200   134.003   3.431    10.831   1.005   2.693    67.849  -0.005   
 416.300   152.745   3.428    10.400  -0.469   2.718    67.862  -0.014   
 416.400   176.172   3.429     9.760  -3.051   2.762    67.858  -0.024   
 416.500   148.060   3.428     9.584   1.228   2.689    67.857  -0.017   
 416.600   171.487   3.428     9.566   1.439   2.685    67.866  -0.012   
 416.700   185.543   3.428     9.552   3.808   2.645    67.864  -0.016   
 416.800   157.430   3.427     9.570   3.189   2.655    67.868  -0.024   
 416.900   144.936   3.429     9.570   4.368   2.635    67.869  -0.016   
 417.000   157.430   3.430     9.566  11.944   2.506    67.865  -0.016   
 417.100   143.374   3.425     9.570  -1.421   2.734    67.873  -0.019   
 417.200   138.689   3.423     9.458   2.340   2.670    67.868  -0.016   
 417.300   218.341   3.423     9.249   3.723   2.646    67.873  -0.018   
 417.400   134.003   3.421     9.361   3.786   2.645    67.881  -0.014   
 417.500   176.172   3.421     9.529  -0.703   2.722    67.883  -0.016   
 417.600   190.228   3.424     9.449  -0.755   2.723    67.875  -0.014   
 417.700   105.891   3.421     9.570   9.956   2.540    67.883  -0.005   
 417.800   129.318   3.421     9.471   0.064   2.709    67.893  -0.022   
 417.900   157.430   3.418     9.566   2.502   2.667    67.881  -0.009   
 418.000   129.318   3.412     9.549   3.762   2.646    67.889  -0.018   
 418.100   171.487   3.411     9.564   4.596   2.631    67.886  -0.020   
 418.200   101.205   3.410     9.570   3.117   2.657    67.889  0.001    
 418.300    91.834   3.405     9.566   0.168   2.707    67.899  -0.018   
 418.400   124.632   3.405     9.570   2.655   2.665    67.898  -0.016   
 418.500   119.947   3.407    10.174   1.768   2.680    67.891  -0.011   
 418.600   119.947   3.398    11.514  -3.060   2.762    67.897  0.000    
 418.700   124.632   3.398    11.651  -4.064   2.779    67.898  0.005    
 418.800   129.318   3.404    12.299   1.327   2.687    67.903  0.004    
 418.900   105.891   3.412    12.321   0.677   2.698    67.898  0.009    
 419.000    87.149   3.413    12.351   7.348   2.584    67.904  0.007    
 419.100    87.149   3.417    12.121   1.723   2.681    67.908  -0.009   
 419.200   143.374   3.422    12.261  -0.920   2.726    67.898  0.024    
 419.300   138.689   3.425    11.624   9.250   2.552    67.916  0.017    
 419.400    96.520   3.428    10.796   8.401   2.566    67.907  0.029    
 419.500   148.060   3.432     9.963   4.720   2.629    67.908  0.014    
 419.600   105.891   3.435     9.601  -1.518   2.736    67.898  0.021    
 419.700   185.543   3.437     9.575   7.927   2.574    67.898  0.017    
 419.800   176.172   3.438     9.464   4.635   2.631    67.894  0.024    
 419.900   101.205   3.436     9.361   7.850   2.576    67.895  0.025    
 420.000   157.430   3.433     9.054   4.149   2.639    67.902  0.040    
 420.100   171.487   3.432     8.661   2.770   2.663    67.907  0.018    
 420.200   143.374   3.430     9.054   3.045   2.658    67.893  0.004    
 420.300   152.745   3.430     9.484   0.230   2.706    67.890  -0.012   
 420.400   105.891   3.428     9.570  12.337   2.499    67.879  -0.016   
