~Version Information
 VERS.                2.0:  CWLS LOG ASCII STANDARD -VERSION 2.0
 WRAP.                 NO:  ONE LINE PER DEPTH STEP
~WELL INFORMATION BLOCK
#MNEM.UNIT       DATA		            DESCRIPTION OF MNEMONIC
#---------    -------------            ------------------------
 STRT.FT  6.300                          :START DEPTH
 STOP.FT  557.000                        :STOP DEPTH
 STEP.FT  0.100                          :STEP    UP_HOLE  
 NULL.    -999.25                        :NULL VALUE
 COMP.                             usgs  :COMPANY
 WELL.   CL1                                                           :WELL
 FLD .                       Candy Lane  :FIELD
 LOC . Lat 38.61717 Long 107.90174       :LOCATION
 CNTY.                         Montrose  :COUNTY
 STAT.                     CO            :STATE
 SRVC.           None                    :SERVICE COMPANY
 DATE.   11/10/2005                      :LOG DATE
 API .                                   :API NUMBER
 LIC .                                   :LICENSE NUMBER
~Curve Information Block
#MNEM.UNIT      API CODE     Curve Description
#---------    -------------  ------------------------
 DEPT     .FT        00 001 00 00          :  1  DEPTH   
 GAMMA    .API-GR    00 310 00 00          :  2                GAMMA
 CALIPER  .INCH      00 280 00 00          :  3              CALIPER
 RES(SG)  .OHM-M     00 220 00 00          :  4              RES(SG)
 POR(DEN) .PERCENT   00 890 00 00          :  5             POR(DEN)
 DEN(CDL) .G/CC      00 350 00 00          :  6             DEN(CDL)
 TEMP     .DEG F     00 660 00 00          :  7                 TEMP
 DEL TEMP .DEG F     00 000 00 00          :  8             DEL TEMP
~Parameter Information Block
#MNEM.UNIT   Information     Description
#---------- ---------------  ------------------------
 FILE.      ORIGINAL           :File Type
 FIID.      9139A              :File Type Identifier
 VERS.      3.58F              :System Version
 SER .      1                  :System Serial Number
 TRUK.      .601567            :Truck Calibration Number
 TOOL.        1239             :Tool Serial Number
 TIME.      1635               :Time    HrHrMinMin
 LAT .                         :Latitude
 LON .                         :Longitude
 LMF .          None           :Log Measured From
 DMF .            GL           :Driller Measured From
 PD  .          None           :Permanent Data
 PDEV.          None           :Elevation Permanent Data
 EKB .M         None           :Elevation Kelly Bushing
 ELEV.DF         550           :Elevation DF
 EGL .M         None           :Elevation Ground Level
 DRDP.           550           :Driller's Depth
 CASD.       8.2               :Casing Diameter
 CASB.            20           :Casing Bottom
 CASX.         steel           :Casing Type
 CAST.         0               :Casing Thickness
 TNOC.          None           :Time Circulation Stopped
 LOGU.       None              :Logging Unit
 RECB.         bscorland       :Recorded By
 OSR1.          None           :Other Services
 OSR2.          None           :Other Services
 OSR3.          None           :Other Services
 BS  .MM       5.875           :Bit Size
 MST .                         :Mean Surface Temperature
 TGRD.        0                :Temperature Gradiant
 MAGN.             0           :Magnetic Declination
 MDEN.      2.71               :Density Matrix
 MATR.       Dolomite          :Neutron Matrix
 DTMT.            54           :Delta T Matrix
 DTFL.                         :Delta T Fluid
 MUDS.               0         :Mud Sample Source
 MRS .           0             :Mud Resistivity
 MTP .           0             :Mud Temperature
 MFRS.                         :Resistivity Mud Filtrate
 MFTP.                         :Temperature Mud Filtrate
 MCRS.         0               :Resistivity Mud Cake
 MCTP.                         :Temperature Mud Cake
 FTYP.             0           :Fluid Type
 FD  .K/M3                     :Fluid Density
 DFV .S                        :Fluid Viscosity
 FPH .                         :Fuild PH
 ELCO.        2500             :Electron Cutoff
~Other Information
#MNEM.UNIT  Information      Description
#---------- ---------------  ------------------------
# -------------------------- 
~A DEPTH  GAMMA     CALIPER RES(SG)   POR(DEN) DEN(CDL) TEMP    DEL TEMP 
   6.300     0.000   0.000     0.000   0.000   0.000     0.000  0.000    
   6.400    93.709   0.000     0.000   0.000   0.000     0.000  0.000    
   6.500   117.604   0.000     0.000   0.000   0.000     0.000  0.000    
   6.600    97.691   0.000     0.000   0.000   0.000     0.000  0.000    
   6.700   101.674   0.000     0.000   0.000   0.000     0.000  0.000    
   6.800   113.622   0.000     0.000   0.000   0.000     0.000  0.000    
   6.900   141.500   0.000     0.000   0.000   0.000     0.000  0.000    
   7.000   125.570   0.000     0.000   0.000   0.000     0.000  0.000    
   7.100   149.465   0.000     0.000   0.000   0.000     0.000  0.000    
   7.200   157.430   0.000     0.000   0.000   0.000     0.000  0.000    
   7.300    93.709   0.000     0.000   0.000   0.000     0.000  0.000    
   7.400   137.517   0.000     0.000   0.000   0.000     0.000  0.000    
   7.500   133.535   0.000     0.000   0.000   0.000     0.000  0.000    
   7.600   161.413   0.000     0.000   0.000   0.000     0.000  0.000    
   7.700   133.535   0.000     0.000   0.000   0.000     0.000  0.000    
   7.800   125.570   0.000     0.000   0.000   0.000     0.000  0.000    
   7.900   125.570   0.000     0.000   0.000   0.000     0.000  0.000    
   8.000   117.604   0.000     0.000   0.000   0.000     0.000  0.000    
   8.100   117.604   0.000  2500.000   0.000   0.000    55.283  -0.004   
   8.200   141.500   0.000  2500.000   0.000   0.000    55.269  0.012    
   8.300   117.604   0.000  2500.000   0.000   0.000    55.275  -0.038   
   8.400   153.448   0.000  2500.000   0.000   0.000    55.256  -0.036   
   8.500   125.570   0.000  2500.000   0.000   0.000    55.263  0.030    
   8.600   161.413   0.000  2500.000   0.000   0.000    55.290  -0.011   
   8.700   153.448   0.000  2500.000   0.000   0.000    55.269  0.034    
   8.800   117.604   0.000  2500.000   0.000   0.000    55.278  -0.003   
   8.900   161.413   0.000  2500.000   0.000   0.000    55.278  0.001    
   9.000   145.483   0.000  2500.000   0.000   0.000    55.269  0.007    
   9.100   213.187   0.000  2500.000   0.000   0.000    55.274  -0.001   
   9.200   149.465   0.000  2500.000   0.000   0.000    55.263  0.022    
   9.300   129.552   0.000  2500.000   0.000   0.000    55.294  0.026    
   9.400   141.500   0.000  2500.000   0.000   0.000    55.298  -0.023   
   9.500   149.465   0.000  2500.000   0.000   0.000    55.260  0.014    
   9.600    97.691   0.000  2500.000   0.000   0.000    55.280  -0.023   
   9.700   149.465   0.000  2500.000   0.000   0.000    55.243  0.014    
   9.800   145.483   0.000  2500.000   0.000   0.000    55.280  0.011    
   9.900   109.639   0.000  2500.000   0.000   0.000    55.268  -0.005   
  10.000   141.500   0.000  2500.000   0.000   0.000    55.267  0.005    
  10.100   125.570   0.000  2500.000   0.000   0.000    55.264  -0.001   
  10.200    85.743   0.000  2500.000   0.000   0.000    55.272  -0.001   
  10.300   153.448   0.000  2500.000   0.000   0.000    55.272  0.026    
  10.400   137.517   0.000  2500.000   0.000   0.000    55.283  0.018    
  10.500   137.517   0.000  2500.000   0.000   0.000    55.267  0.007    
  10.600   105.656   0.000  2500.000   0.000   0.000    55.267  0.001    
  10.700   113.622   0.000  2500.000   0.000   0.000    55.267  0.005    
  10.800    73.796   0.000  2500.000   0.000   0.000    55.257  0.010    
  10.900   117.604   0.000  2500.000   0.000   0.000    55.272  -0.011   
  11.000   137.517   0.000  2500.000   0.000   0.000    55.258  0.019    
  11.100    93.709   0.000  2500.000   0.000   0.000    55.274  0.021    
  11.200    85.743   0.000  2500.000   0.000   0.000    55.274  -0.003   
  11.300   129.552   0.000  2500.000   0.000   0.000    55.257  0.001    
  11.400   137.517   0.000  2500.000   0.000   0.000    55.249  0.010    
  11.500   125.570   0.000  2500.000   0.000   0.000    55.260  0.010    
  11.600   117.604   0.000  2500.000   0.000   0.000    55.265  -0.014   
  11.700   101.674   0.000  2500.000   0.000   0.000    55.252  0.016    
  11.800   105.656   0.000  2500.000   0.000   0.000    55.263  0.027    
  11.900    81.761   0.000  2500.000   0.000   0.000    55.269  0.014    
  12.000   145.483   0.000  2500.000   0.000   0.000    55.254  -0.003   
  12.100    85.743   0.000  2500.000   0.000   0.000    55.253  0.021    
  12.200   137.517   0.000  2500.000   0.000   0.000    55.260  -0.010   
  12.300   121.587   0.000  2500.000   0.000   0.000    55.248  -0.003   
  12.400    97.691   0.000  2500.000   0.000   0.000    55.250  0.010    
  12.500   141.500   0.000  2500.000   0.000   0.000    55.256  0.026    
  12.600   121.587   0.000  2500.000   0.000   0.000    55.265  0.012    
  12.700   101.674   0.000  2500.000   0.000   0.000    55.246  -0.001   
  12.800   117.604   0.000  2500.000   0.000   0.000    55.242  0.003    
  12.900   125.570   0.000  2500.000   0.000   0.000    55.241  0.033    
  13.000   113.622   0.000  2500.000   0.000   0.000    55.256  0.008    
  13.100   157.430   0.000  2500.000   0.000   0.000    55.239  0.025    
  13.200   113.622   0.000  2500.000   0.000   0.000    55.257  0.026    
  13.300    93.709   0.000  2500.000   0.000   0.000    55.253  0.019    
  13.400   121.587   0.000  2500.000   0.000   0.000    55.246  0.027    
  13.500   109.639   0.000  2500.000   0.000   0.000    55.239  0.010    
  13.600    85.743   0.000  2500.000   0.000   0.000    55.234  0.031    
  13.700   125.570   3.950  2500.000   0.000   0.000    55.243  0.036    
  13.800    77.778   3.950  2500.000   0.000   0.000    55.238  0.015    
  13.900   145.483   3.951  2500.000   0.000   0.000    55.223  0.040    
  14.000   133.535   3.952  2500.000   0.000   0.000    55.231  0.021    
  14.100    85.743   3.952  2500.000   0.000   0.000    55.232  0.023    
  14.200    81.761   3.952  2500.000   0.000   0.000    55.227  0.031    
  14.300    89.726   3.950  2500.000   0.000   0.000    55.227  -0.004   
  14.400    97.691   3.952  2500.000  34.700   2.117    55.212  0.027    
  14.500    81.761   3.952  2500.000  33.160   2.143    55.224  0.026    
  14.600    93.709   3.952  2500.000  34.595   2.118    55.212  0.011    
  14.700    81.761   3.953  2500.000  36.177   2.091    55.202  0.012    
  14.800    57.865   3.952  2500.000  32.874   2.148    55.208  -0.004   
  14.900    61.848   3.955  2500.000  30.374   2.191    55.191  0.014    
  15.000    85.743   3.954  2500.000  32.401   2.156    55.212  0.025    
  15.100    89.726   3.953  2500.000  33.560   2.136    55.204  0.010    
  15.200   101.674   3.954  2500.000  30.347   2.191    55.195  0.029    
  15.300   101.674   3.954  2500.000  34.586   2.119    55.216  0.027    
  15.400   129.552   3.955  2500.000  32.239   2.159    55.197  0.003    
  15.500   133.535   3.955  2500.000  36.374   2.088    55.186  0.019    
  15.600   101.674   3.955  2500.000  35.304   2.106    55.191  0.026    
  15.700   113.622   3.956  2500.000  32.550   2.153    55.195  0.026    
  15.800   105.656   3.955  2500.000  35.131   2.109    55.195  0.029    
  15.900   125.570   3.956  2500.000  36.143   2.092    55.198  0.012    
  16.000   109.639   3.957  2500.000  34.036   2.128    55.179  0.011    
  16.100    69.813   3.957  2500.000  30.482   2.189    55.186  0.026    
  16.200   121.587   3.956  2500.000  34.349   2.123    55.187  -0.008   
  16.300    65.830   3.955  2500.000  32.291   2.158    55.169  0.014    
  16.400    61.848   3.957  2500.000  31.254   2.176    55.183  0.012    
  16.500    77.778   3.957  2500.000  35.544   2.102    55.172  0.011    
  16.600    85.743   3.956  2500.000  34.876   2.114    55.169  0.019    
  16.700    93.709   3.956  2500.000  32.978   2.146    55.169  0.008    
  16.800    73.796   3.955  2500.000  32.946   2.147    55.169  0.021    
  16.900    93.709   3.958  2500.000  33.031   2.145    55.167  0.019    
  17.000    93.709   3.957  2500.000  35.734   2.099    55.175  -0.001   
  17.100    81.761   3.959  2500.000  35.919   2.096    55.161  0.016    
