~Version Information
 VERS.                2.0:  CWLS LOG ASCII STANDARD -VERSION 2.0
 WRAP.                 NO:  ONE LINE PER DEPTH STEP
~WELL INFORMATION BLOCK
#MNEM.UNIT       DATA		            DESCRIPTION OF MNEMONIC
#---------    -------------            ------------------------
 STRT.FT  12.700                         :START DEPTH
 STOP.FT  552.200                        :STOP DEPTH
 STEP.FT  0.100                          :STEP    UP_HOLE  
 NULL.    -999.25                        :NULL VALUE
 COMP.                             usgs  :COMPANY
 WELL.   CL1                                                           :WELL
 FLD .                       Candy Lane  :FIELD
 LOC .  Lat 38.61717 Long 107.90174      :LOCATION
 CNTY.                         Montrose  :COUNTY
 STAT.                     CO            :STATE
 SRVC.           None                    :SERVICE COMPANY
 DATE.   11/10/2005                      :LOG DATE
 API .                                   :API NUMBER
 LIC .                                   :LICENSE NUMBER
~Curve Information Block
#MNEM.UNIT      API CODE     Curve Description
#---------    -------------  ------------------------
 DEPT     .FT        00 001 00 00          :  1  DEPTH   
 GAMMA    .CPS       00 310 00 00          :  2                GAMMA
 CALIPER  .INCH      00 280 00 00          :  3              CALIPER
~Parameter Information Block
#MNEM.UNIT   Information     Description
#---------- ---------------  ------------------------
 FILE.      ORIGINAL           :File Type
 FIID.      9074C              :File Type Identifier
 VERS.      3.58F              :System Version
 SER .      1                  :System Serial Number
 TRUK.      .601567            :Truck Calibration Number
 TOOL.         877             :Tool Serial Number
 TIME.      1245               :Time    HrHrMinMin
 LAT .                         :Latitude
 LON .                         :Longitude
 LMF .          None           :Log Measured From
 DMF .            GL           :Driller Measured From
 PD  .          None           :Permanent Data
 PDEV.          None           :Elevation Permanent Data
 EKB .M         None           :Elevation Kelly Bushing
 ELEV.DF         550           :Elevation DF
 EGL .M         None           :Elevation Ground Level
 DRDP.           550           :Driller's Depth
 CASD.       8.2               :Casing Diameter
 CASB.            20           :Casing Bottom
 CASX.         steel           :Casing Type
 CAST.         0               :Casing Thickness
 TNOC.          None           :Time Circulation Stopped
 LOGU.       None              :Logging Unit
 RECB.         bscorland       :Recorded By
 OSR1.          None           :Other Services
 OSR2.          None           :Other Services
 OSR3.          None           :Other Services
 BS  .MM       5.875           :Bit Size
 MST .                         :Mean Surface Temperature
 TGRD.        0                :Temperature Gradiant
 MAGN.             0           :Magnetic Declination
 MDEN.      2.71               :Density Matrix
 MATR.       Dolomite          :Neutron Matrix
 DTMT.            54           :Delta T Matrix
 DTFL.                         :Delta T Fluid
 MUDS.               0         :Mud Sample Source
 MRS .           0             :Mud Resistivity
 MTP .           0             :Mud Temperature
 MFRS.                         :Resistivity Mud Filtrate
 MFTP.                         :Temperature Mud Filtrate
 MCRS.         0               :Resistivity Mud Cake
 MCTP.                         :Temperature Mud Cake
 FTYP.             0           :Fluid Type
 FD  .K/M3                     :Fluid Density
 DFV .S                        :Fluid Viscosity
 FPH .                         :Fuild PH
 ELCO.        2500             :Electron Cutoff
~Other Information
#MNEM.UNIT  Information      Description
#---------- ---------------  ------------------------
# -------------------------- 
~A DEPTH  GAMMA     CALIPER 
# ...
 509.500   190.000   5.078  
 509.600   175.000   5.078  
 509.700   160.000   5.076  
 509.800   190.000   5.080  
 509.900   210.000   5.080  
 510.000   150.000   5.082  
 510.100   195.000   5.080  
 510.200   145.000   5.080  
 510.300   175.000   5.078  
 510.400   150.000   5.074  
 510.500   203.333   5.076  
 510.600   215.000   5.074  
 510.700   220.000   5.072  
 510.800   210.000   5.072  
 510.900   210.000   5.072  
 511.000   200.000   5.070  
 511.100   200.000   5.072  
 511.200   220.000   5.072  
 511.300   196.667   5.074  
 511.400   155.000   5.070  
 511.500   175.000   5.078  
 511.600   135.000   5.082  
 511.700   165.000   5.082  
 511.800   170.000   5.080  
 511.900   200.000   5.082  
 512.000   230.000   5.082  
 512.100   160.000   5.080  
 512.200   190.000   5.080  
 512.300   180.000   5.078  
 512.400   170.000   5.078  
 512.500   265.000   5.082  
 512.600   133.333   5.080  
 512.700   165.000   5.078  
 512.800   185.000   5.080  
 512.900   155.000   5.080  
 513.000   200.000   5.082  
 513.100   145.000   5.080  
 513.200   165.000   5.076  
 513.300   145.000   5.078  
 513.400   180.000   5.074  
 513.500   183.333   5.066  
 513.600   200.000   5.064  
 513.700   195.000   5.068  
 513.800   195.000   5.070  
 513.900   145.000   5.071  
 514.000   180.000   5.074  
 514.100   160.000   5.074  
 514.200   150.000   5.072  
 514.300   135.000   5.074  
 514.400   215.000   5.074  
 514.500   245.000   5.074  
 514.600   180.000   5.074  
 514.700   170.000   5.074  
 514.800   100.000   5.073  
 514.900   150.000   5.072  
 515.000   180.000   5.074  
 515.100   170.000   5.074  
 515.200   235.000   5.072  
 515.300   175.000   5.068  
 515.400   145.000   5.066  
 515.500   150.000   5.068  
 515.600   160.000   5.072  
 515.700   165.000   5.072  
 515.800   185.000   5.074  
 515.900   210.000   5.070  
 516.000   180.000   5.074  
 516.100   230.000   5.072  
 516.200   200.000   5.074  
 516.300   185.000   5.072  
 516.400   105.000   5.072  
 516.500   150.000   5.064  
 516.600   150.000   5.064  
 516.700   150.000   5.072  
 516.800   176.667   5.074  
 516.900   215.000   5.072  
 517.000   185.000   5.074  
 517.100   180.000   5.074  
 517.200   200.000   5.070  
 517.300   145.000   5.070  
 517.400   155.000   5.070  
 517.500   195.000   5.070  
 517.600   180.000   5.068  
 517.700   115.000   5.074  
 517.800   200.000   5.070  
 517.900   170.000   5.068  
 518.000   225.000   5.071  
 518.100   143.333   5.070  
 518.200   195.000   5.074  
 518.300   215.000   5.074  
 518.400   190.000   5.070  
 518.500   170.000   5.074  
 518.600   180.000   5.070  
 518.700   230.000   5.072  
 518.800   165.000   5.076  
 518.900   175.000   5.074  
 519.000   210.000   5.074  
 519.100   175.000   5.072  
 519.200   160.000   5.070  
 519.300   155.000   5.073  
 519.400   140.000   5.070  
 519.500   160.000   5.054  
 519.600   165.000   5.066  
 519.700   160.000   5.074  
 519.800   175.000   5.070  
 519.900   180.000   5.070  
 520.000   220.000   5.068  
 520.100   175.000   5.074  
 520.200   186.667   5.074  
 520.300   165.000   5.066  
 520.400   120.000   5.074  
 520.500   200.000   5.074  
 520.600   135.000   5.074  
 520.700   155.000   5.078  
 520.800   280.000   5.070  
 520.900   190.000   5.072  
 521.000   160.000   5.074  
 521.100   225.000   5.074  
 521.200   205.000   5.078  
 521.300   185.000   5.067  
 521.400   130.000   5.070  
 521.500   143.333   5.074  
 521.600   165.000   5.074  
 521.700   210.000   5.072  
 521.800   130.000   5.074  
 521.900   190.000   5.076  
 522.000   175.000   5.076  
 522.100   200.000   5.074  
 522.200   150.000   5.072  
 522.300   170.000   5.078  
 522.400   160.000   5.076  
 522.500   195.000   5.076  
 522.600   210.000   5.070  
 522.700   180.000   5.066  
 522.800   175.000   5.066  
 522.900   220.000   5.076  
 523.000   170.000   5.078  
 523.100   200.000   5.072  
 523.200   160.000   5.070  
 523.300   195.000   5.074  
 523.400   140.000   5.078  
 523.500   143.333   5.088  
 523.600   180.000   5.070  
 523.700   190.000   5.064  
 523.800   130.000   5.062  
 523.900   220.000   5.074  
 524.000   190.000   5.078  
 524.100   165.000   5.074  
 524.200   180.000   5.072  
 524.300   190.000   5.072  
 524.400   215.000   5.072  
 524.500   175.000   5.072  
 524.600   180.000   5.070  
 524.700   186.667   5.074  
 524.800   185.000   5.070  
 524.900   245.000   5.070  
 525.000   160.000   5.074  
 525.100   225.000   5.072  
 525.200   160.000   5.072  
 525.300   215.000   5.074  
 525.400   155.000   5.076  
 525.500   185.000   5.074  
 525.600   186.667   5.072  
 525.700   205.000   5.074  
 525.800   195.000   5.066  
 525.900   255.000   5.069  
 526.000   230.000   5.078  
 526.100   240.000   5.080  
 526.200   185.000   5.084  
 526.300   155.000   5.080  
 526.400   155.000   5.082  
 526.500   170.000   5.078  
 526.600   190.000   5.078  
 526.700   220.000   5.074  
 526.800   185.000   5.076  
 526.900   225.000   5.076  
 527.000   140.000   5.074  
 527.100   205.000   5.078  
 527.200   260.000   5.076  
 527.300   180.000   5.074  
 527.400   205.000   5.078  
 527.500   210.000   5.076  
 527.600   155.000   5.076  
 527.700   100.000   5.078  
 527.800   180.000   5.078  
 527.900   186.667   5.076  
 528.000   150.000   5.078  
 528.100   140.000   5.076  
 528.200   130.000   5.076  
 528.300   170.000   5.078  
 528.400   265.000   5.076  
 528.500   165.000   5.078  
 528.600   175.000   5.078  
 528.700   185.000   5.082  
 528.800   176.667   5.078  
 528.900   140.000   5.078  
 529.000   185.000   5.078  
 529.100   160.000   5.082  
 529.200   175.000   5.090  
 529.300   145.000   5.082  
 529.400   215.000   5.074  
 529.500   145.000   5.072  
 529.600   210.000   5.080  
 529.700   205.000   5.084  
 529.800   235.000   5.092  
 529.900   225.000   5.111  
 530.000   230.000   5.101  
 530.100   145.000   5.074  
 530.200   255.000   5.074  
 530.300   225.000   5.076  
 530.400   225.000   5.074  
 530.500   255.000   5.080  
 530.600   235.000   5.076  
 530.700   265.000   5.078  
 530.800   260.000   5.074  
 530.900   285.000   5.097  
 531.000   330.000   5.170  
 531.100   260.000   5.151  
 531.200   270.000   5.162  
 531.300   250.000   5.172  
 531.400   200.000   5.097  
 531.500   255.000   5.064  
 531.600   210.000   5.066  
 531.700   240.000   5.066  
 531.800   200.000   5.064  
 531.900   180.000   5.064  
 532.000   270.000   5.066  
 532.100   200.000   5.066  
 532.200   245.000   5.064  
 532.300   215.000   5.065  
 532.400   226.667   5.060  
 532.500   185.000   5.066  
 532.600   195.000   5.066  
 532.700   225.000   5.066  
 532.800   220.000   5.066  
 532.900   260.000   5.070  
 533.000   220.000   5.068  
 533.100   230.000   5.070  
 533.200   255.000   5.074  
 533.300   255.000   5.076  
 533.400   245.000   5.080  
 533.500   165.000   5.090  
 533.600   295.000   5.094  
 533.700   305.000   5.141  
 533.800   290.000   5.176  
 533.900   255.000   5.088  
 534.000   260.000   5.050  
 534.100   235.000   5.048  
 534.200   190.000   5.046  
 534.300   280.000   5.050  
 534.400   230.000   5.046  
 534.500   195.000   5.048  
 534.600   180.000   5.049  
 534.700   210.000   5.048  
 534.800   213.333   5.046  
 534.900   235.000   5.046  
 535.000   245.000   5.050  
 535.100   165.000   5.050  
 535.200   265.000   5.046  
 535.300   210.000   5.048  
 535.400   200.000   5.046  
 535.500   240.000   5.046  
 535.600   270.000   5.046  
 535.700   225.000   5.050  
 535.800   220.000   5.048  
 535.900   200.000   5.050  
 536.000   215.000   5.066  
 536.100   175.000   5.050  
 536.200   193.333   5.044  
 536.300   190.000   5.048  
 536.400   160.000   5.050  
 536.500   160.000   5.050  
 536.600   125.000   5.050  
 536.700   165.000   5.050  
 536.800   200.000   5.050  
 536.900   150.000   5.056  
 537.000   155.000   5.058  
